[{"id": "2768lxx5-013e5332df0d0e3a9fbbbe34122b7eb2", "title": "M.G. Autoankauf K\u00f6ln Umland", "category": "Service", "lat": 50.99916, "lng": 6.91075}, {"id": "276u1hfj-ff4fdf7caa674554b23e16b4e66ec2af", "title": "Hotel Bauernschaenke", "category": "Hotel", "lat": 50.999218, "lng": 6.911335}, {"id": "276u1hfj-e4232bd7d5554137b876f6c1d6914498", "title": "Longerich Stommeler Str.", "category": "Public Transport", "lat": 50.999254, "lng": 6.912068}, {"id": "276q9wpy-59fb98ada12d0c363eb4c72311c3bc6c", "title": "K\u00f6ln, Longerich Stommeler STR.", "category": "Public Transport", "lat": 50.99898, "lng": 6.91206}, {"id": "276u1hfj-73e600b21b52474f974bb83f04e324ee", "title": "Nelles B\u00e4ckerei", "category": "Food & Drink", "lat": 50.99898, "lng": 6.91206}, {"id": "276u1hfj-77d4694d7993496d9200e5d2decbe6ed", "title": "ARAL", "category": "Petrol Station", "lat": 50.99898, "lng": 6.91206}, {"id": "276aabd1-5fa4a0ad3601099efe69e3d7ed7e02b0", "title": "Restaurant Muhlenhof", "category": "Restaurant", "lat": 50.99817, "lng": 6.91031}, {"id": "2768lxx5-a4c52aeb77400dea1cf1d254b559e906", "title": "Sportcenter Hara", "category": "Educational Facility", "lat": 50.99872, "lng": 6.91267}, {"id": "276u1hfj-470deb432db245119927dddebbdc4759", "title": "Alt Longerich", "category": "Restaurant", "lat": 50.998, "lng": 6.90706}, {"id": "276u1hfj-e932edfa090b44fcbc6219cdae90c03e", "title": "Aaha Gastronomie Partyservices", "category": "Restaurant", "lat": 50.99832, "lng": 6.91373}, {"id": "276u1hfj-d3dd80559a5d48f4a40d5d61f302a837", "title": "Bella Danza", "category": "Educational Facility", "lat": 50.99917, "lng": 6.90541}, {"id": "276u1hfj-c09f39d839eb4a96a639f1bf6ee55369", "title": "Trattoria Etna", "category": "Restaurant", "lat": 50.99801, "lng": 6.90622}, {"id": "276u1hfj-8e456ff682e54174bca96c86cbd2e6f6", "title": "Flora 19", "category": "Food & Drink", "lat": 50.99716, "lng": 6.9129}, {"id": "276u1hfj-f6b5831919434a3ca9835041d07b698b", "title": "S\u00fcdstadtsport", "category": "Clothing & Accessories", "lat": 50.99734, "lng": 6.90606}, {"id": "2768lxx5-75664fad4aa40942434bffc93563aaef", "title": "Strickcafe-Zickenstube", "category": "Shop", "lat": 50.99704, "lng": 6.90654}, {"id": "276u1hfj-4ce95241f44e4077a8f2cb3bd2a2a76a", "title": "Da Enzo", "category": "Restaurant", "lat": 50.99693, "lng": 6.90558}, {"id": "2768lxx5-b77c239ce54507192c60e88e764c7c3c", "title": "Newzellas Backstube", "category": "Food & Drink", "lat": 50.99677, "lng": 6.90557}, {"id": "276jx7ps-8e54376023000030fdb42e9e6d367933", "title": "Modehaus Tag und Nacht", "category": "Clothing & Accessories", "lat": 50.99719, "lng": 6.90481}, {"id": "276u1hfj-062bb2b12e2241d28069148b973c6e5d", "title": "Dalmatien", "category": "Restaurant", "lat": 50.99656, "lng": 6.91451}, {"id": "2768lxx5-d9fbcf212b0d0bbfaf0d68ca6dea8113", "title": "Lunke Kebap Haus", "category": "Restaurant", "lat": 50.99678, "lng": 6.90511}, {"id": "2768lxx5-5209bf7bcfac06218e6fa7492004104d", "title": "Anda Milardovic", "category": "Restaurant", "lat": 50.99648, "lng": 6.91478}, {"id": "276u1hfj-4e721539568c44ba9309499b713e6f84", "title": "La Piccola", "category": "Restaurant", "lat": 50.9958, "lng": 6.91412}, {"id": "276u1hfj-cfe5226be3c24e58974ab71b66e43c7c", "title": "Jaegerhof", "category": "Restaurant", "lat": 50.99848, "lng": 6.90276}, {"id": "276u1hfj-0de8f0bc40d7472199fc6757ac13ce60", "title": "Longericher Grillstation", "category": "Food & Drink", "lat": 50.99498, "lng": 6.9135}, {"id": "276u1hfj-5d00ad5a7a73445fad782e6690ae123d", "title": "J\u00fcrgen Kuhse", "category": "Shop", "lat": 50.99741, "lng": 6.91778}, {"id": "2768lxx5-cdc7a969c2fb0c10c75bda421eb41756", "title": "Flying Petticoats", "category": "Theatre, Music & Culture", "lat": 50.99272, "lng": 6.9082}, {"id": "276u1hfj-4c314cbe943048de8984c7be5d9b9e66", "title": "Sionst\u00fcbchen", "category": "Bar/Pub", "lat": 50.9955, "lng": 6.92535}, {"id": "276u1hfj-5d798a5c3a764db3be047584ae445cb4", "title": "Daniels", "category": "Food & Drink", "lat": 50.99547, "lng": 6.92553}, {"id": "276u1hfj-e7882b7ef0e641b4bcc45b010b0ab977", "title": "Buchhandlung Eselsohr", "category": "Book Shop", "lat": 50.99506, "lng": 6.92544}, {"id": "276u1hfj-92d6e20d63cb4ff0806b5ddf007f8606", "title": "Sam Grill und Pizzeria", "category": "Restaurant", "lat": 50.99447, "lng": 6.92523}, {"id": "276aabd1-1f78b079e7e10ba662e1adff3b8e018b", "title": "Cucu's Mocca", "category": "Food & Drink", "lat": 51.01062, "lng": 6.90571}, {"id": "2768lxx5-e956fd9bf92b059e562175d3e1b7f9d0", "title": "Eiscaf\u00e9 Bossio", "category": "Food & Drink", "lat": 50.99517, "lng": 6.92603}, {"id": "276u1hfj-71571be32cb14927bebe0a0ca9df1aaf", "title": "B\u00e4ckerei Newzella", "category": "Food & Drink", "lat": 51.010716, "lng": 6.905899}, {"id": "2768lxx5-e1c3608f48ba036ae10cffce42795831", "title": "Croissini Bistro - Caf\u00e9 und Mehr", "category": "Restaurant", "lat": 50.99506, "lng": 6.92603}, {"id": "2768lxx5-df58c8cca3be0f1a17d8ffde7be3f058", "title": "Im Pf\u00e4nnchen", "category": "Restaurant", "lat": 50.99415, "lng": 6.92552}, {"id": "2768lxx5-7b4d9f8f6ffa0afabf41b80739760e98", "title": "Lotto-Tabak-Zeitschriften Angelika Hanstein", "category": "Coffee/Tea", "lat": 51.011009, "lng": 6.906343}, {"id": "276u1hfj-37129aef5fde4e33b1c0d3739ff90ab2", "title": "Konditorei Rieger", "category": "Restaurant", "lat": 50.99428, "lng": 6.92595}, {"id": "276u1hfj-1936e04258144031961f94f9afd2b723", "title": "Gaststatte Furstenhof", "category": "Restaurant", "lat": 51.01108, "lng": 6.90526}, {"id": "276u1hfj-865ab5641ed845d0b66b9190fe0b5b3e", "title": "Club Mondial", "category": "Dance or Nightclub", "lat": 50.98747, "lng": 6.91331}, {"id": "276u1hfj-0b98b251a1aa4d14bbc4903125e19f46", "title": "Bimmelbahn Wolters, Rundfahrten in K\u00f6ln", "category": "Dance or Nightclub", "lat": 50.98689, "lng": 6.91093}, {"id": "276d408k-d7067769f0c106ad3d9eaea0042ef4b7", "title": "Los Bandoleros", "category": "Going Out", "lat": 51.00312, "lng": 6.88941}, {"id": "276d408k-ed27b04b64ad074d5abb242f92e5436d", "title": "Escobar - Shishalounge \u00b7 Bar \u00b7 Cafe", "category": "Going Out", "lat": 51.00312, "lng": 6.88941}, {"id": "276d408k-76b37908b3360b9af81c4604432b770e", "title": "Kappes", "category": "Clothing & Accessories", "lat": 50.98609, "lng": 6.91191}, {"id": "276u1hfh-71f097c803bd48ff9f9e4525e91be882", "title": "Shiva Restaurant", "category": "Restaurant", "lat": 51.00324, "lng": 6.88836}, {"id": "2768lxx5-d5940daa4c940b651b63a8c4bb9d105f", "title": "Haus Lindweiler", "category": "Sport Facility/Venue", "lat": 51.00324, "lng": 6.88836}, {"id": "276u1hfh-4926f5c5058b4e5899e82762b8543b89", "title": "Haus Thomas", "category": "Hotel", "lat": 51.01083, "lng": 6.89576}, {"id": "276u1hfh-3f84013bf065406a977caaf8cc5b7c30", "title": "Das Supertalent", "category": "Theatre, Music & Culture", "lat": 50.98858, "lng": 6.89627}, {"id": "276u1hfh-5358eff86ba243bcb94c219b7bd19ec9", "title": "Germany's next Topmodel Casting Staffel 10", "category": "Theatre, Music & Culture", "lat": 50.98858, "lng": 6.89627}, {"id": "276u1hfj-c2539b98555f40f4a80e6f3420b85a67", "title": "Adolph's Gasthaus", "category": "Restaurant", "lat": 50.99356, "lng": 6.93404}, {"id": "276u1hcu-46b56a0625194f8b88bbf35f10702daf", "title": "Abacco's Steakhouse Koln", "category": "Restaurant", "lat": 50.98186, "lng": 6.896965}, {"id": "276u1hfn-9c6e59156ee5428fb0c1232041d94a89", "title": "Im Birkenhof", "category": "Restaurant", "lat": 50.97947, "lng": 6.94372}, {"id": "276u1hfn-d5749a81dcfe42bcad605940a0f9dfbe", "title": "Rheinkult", "category": "Restaurant", "lat": 50.97777, "lng": 6.94883}, {"id": "276u1j13-44681679d0464a30b31edcc2bfa1b568", "title": "Zum Pitter", "category": "Restaurant", "lat": 50.96487, "lng": 6.89711}, {"id": "276u1hcu-d09a67bb3c0a42ee9b2c4a5070b23e47", "title": "Adria", "category": "Restaurant", "lat": 50.97375, "lng": 6.864}, {"id": "276u1hcy-479ec7c713a54739aaacf079d39aeadb", "title": "Willie Tanner", "category": "Restaurant", "lat": 50.96256, "lng": 6.9517}, {"id": "276u1hcy-30fff1a9326640a4ba473b3aaaa71dfd", "title": "Ristorante & Pizzeria Il Gusto da Enzo", "category": "Restaurant", "lat": 50.9592, "lng": 6.94437}, {"id": "276u1hcv-d81120c5419b4bf999af4acf1a55e0a3", "title": "Pizzeria Piccola Essen & Trinken Ehrenfeld", "category": "Restaurant", "lat": 50.95284, "lng": 6.91242}, {"id": "276aabd1-02c4dbbf8c2b07e19af03f9b0f5edda7", "title": "El Comedor", "category": "Restaurant", "lat": 50.9515, "lng": 6.90713}, {"id": "276u1hcv-e455dae71a4843ffb882b586ecdeaadb", "title": "Underground", "category": "Dance or Nightclub", "lat": 50.94948, "lng": 6.91316}, {"id": "276aabd1-17f47822caf00a05fa697ada754580e8", "title": "Salatkind", "category": "Snacks/Fast food", "lat": 50.98651, "lng": 6.88127}, {"id": "276u1hfk-0beb80905c5342b996294fdc420c2648", "title": "Hunkemo\u0308Ller", "category": "Clothing & Accessories", "lat": 51.02105, "lng": 6.89635}, {"id": "276u1hfk-049019295c88434b9b23861026b4a651", "title": "Apollo Optik", "category": "Shop", "lat": 51.02105, "lng": 6.89635}, {"id": "276u1hfk-e96fcf1613934fd89254154324e04b8a", "title": "fielmann", "category": "Shop", "lat": 51.02105, "lng": 6.89635}, {"id": "276u1hfk-5dda45be468248e48541a1e2e4c05895", "title": "Jd Sports", "category": "Outdoor Sports", "lat": 51.02105, "lng": 6.89635}, {"id": "276u1hfk-34da5cbd5c8747728d761663a6d94ee9", "title": "Tom Tailor Store", "category": "Clothing & Accessories", "lat": 51.02105, "lng": 6.89635}, {"id": "276aabd1-6ade72147ee40cfee2ffdbad3f32519d", "title": "Oskar Jager Deli Ehrenfeld", "category": "Restaurant", "lat": 50.94783, "lng": 6.90752}, {"id": "276u1hfk-6c3ddb28eb774ba8a1fb14a7643298d0", "title": "City Center Chorweiler", "category": "Shopping Centre", "lat": 51.02194, "lng": 6.89638}, {"id": "276u1hfq-d8906044d3924900acff6c5aedba5016", "title": "Dos-Y-Dos", "category": "Restaurant", "lat": 51.03095, "lng": 6.97835}, {"id": "2768lxx5-9d2f7a8dd59504a00fd164d6787a3e74", "title": "Caldo E Freddo", "category": "Restaurant", "lat": 50.94754, "lng": 6.9225}, {"id": "276u1hcv-d300f3e1bd08400b8e1b16d830080236", "title": "Lezizel Manti", "category": "Restaurant", "lat": 50.94741, "lng": 6.92281}, {"id": "276u1hcv-05e02413d7a14a3eb89e6607f98dba26", "title": "Edelgr\u00fcn", "category": "Restaurant", "lat": 50.94664, "lng": 6.92405}, {"id": "276u1hcv-a60b5d74e907494a91727769b4cfd343", "title": "Weltempfanger Backpacker Hostel & Cafe", "category": "Hotel", "lat": 50.94622, "lng": 6.92563}, {"id": "276u1hcv-fda087aec731454d99eb2fcf8d8d6906", "title": "Huckleberry", "category": "Restaurant", "lat": 50.94618, "lng": 6.92574}, {"id": "276aabd1-d91959da719d0d0a77bbece303192195", "title": "Dank Augusta", "category": "Restaurant", "lat": 50.96085, "lng": 6.97179}, {"id": "276u1hcy-635b9da952cd445d9c51257bfd6c4613", "title": "Sant' Angelo - Bar & Trattoria", "category": "Restaurant", "lat": 50.95139, "lng": 6.9541}, {"id": "276u1hcy-ba09ff5c3de14394a0aced7a3dc81bb7", "title": "Wirtshaus Spitz", "category": "Restaurant", "lat": 50.95205, "lng": 6.95695}, {"id": "276u1hcv-f6ad28c2cdc1459480d661cf588add96", "title": "Pizzeria Trattoria la Capricciosa", "category": "Restaurant", "lat": 50.94964, "lng": 6.9535}, {"id": "276u1hcy-05777ed5185a4e81ba542c473ad73a8d", "title": "Hotel Coellner Hof", "category": "Hotel", "lat": 50.95, "lng": 6.95557}, {"id": "276u1hcu-ebcd2ca920274c978594a04395807477", "title": "ArtLogo Patrick Motyl", "category": "Sights & Museums", "lat": 50.96624, "lng": 6.89289}, {"id": "276aabd1-968f490628f00c351d1148e0c4b09fa8", "title": "Sicily Street Food", "category": "Snacks/Fast food", "lat": 50.96692, "lng": 6.88921}, {"id": "276u1hfh-def4210899454e438347d620961c10d1", "title": "Bistro Miro", "category": "Restaurant", "lat": 51.01551, "lng": 6.8584}, {"id": "276aabd1-8be6e271e0f50bbf723f4b3ea0df2d51", "title": "Beachpark Cologne", "category": "Snacks/Fast food", "lat": 50.97085, "lng": 6.86065}, {"id": "276u1hcv-c657c32e5d654d48aaba03933464b331", "title": "Vielfalt Tapas", "category": "Restaurant", "lat": 50.95677, "lng": 6.9193}, {"id": "276jx7ps-95835fbdb8cf08f76cc9aeec6cef6716", "title": "Karl Hermann's", "category": "Restaurant", "lat": 50.95625, "lng": 6.90453}, {"id": "276u1hcv-f7658b8974464389966f9a55aedf9cd6", "title": "Maifeld Cafe-Bar-Restaurant", "category": "Snacks/Fast food", "lat": 50.95603, "lng": 6.91739}, {"id": "276jx7ps-13e0885718a50af04042f3e5a27cefa1", "title": "Bunte Burger", "category": "Restaurant", "lat": 50.95422, "lng": 6.90933}, {"id": "276hzqom-164196d6b24c10f9856820ba7f60f222", "title": "Sushi Koln", "category": "Restaurant", "lat": 50.95409, "lng": 6.9098}, {"id": "276u1hcy-5752b1b27c0a49689e66bd0b5d97427d", "title": "Apollo Optik", "category": "Shop", "lat": 50.96268, "lng": 6.95398}, {"id": "276u1hcy-85c42ceb10a04c42970c2fc7ed20834d", "title": "fielmann", "category": "Shop", "lat": 50.96172, "lng": 6.95422}, {"id": "276aabd1-d355c59c14b402c90063dc85f0db4493", "title": "Granfood", "category": "Food & Drink", "lat": 50.95318, "lng": 6.89488}, {"id": "276u1hcv-c7ba376bb30b461a9bb7d17e6afe2706", "title": "Laden 1/3", "category": "Sport Facility/Venue", "lat": 50.95213, "lng": 6.91221}, {"id": "276u1hcv-cd55bd0bf25d44f2b027ec296e26172e", "title": "Deleeciosa", "category": "Snacks/Fast food", "lat": 50.9518, "lng": 6.91402}, {"id": "276u1hcv-a81cfd47fc644ffea829e4633b665b7a", "title": "Antik Breuer", "category": "Shop", "lat": 50.95163, "lng": 6.91475}, {"id": "276aabd1-b1232e90805e054f8c2061e6e9eee750", "title": "Les Boites", "category": "Shop", "lat": 50.95038, "lng": 6.91309}, {"id": "276u1hcv-df9aa9e6a9d542b8b5af7e1b6be7b9c4", "title": "fielmann", "category": "Shop", "lat": 50.94982, "lng": 6.91728}, {"id": "276aabd1-6cc81e714ab90f06b688373de0270772", "title": "Woanders Cafe", "category": "Theatre, Music & Culture", "lat": 50.94866, "lng": 6.90802}, {"id": "276u1hcv-208908486e8a471cb6de8bfca00bcfa4", "title": "Apollo Optik", "category": "Shop", "lat": 50.9489, "lng": 6.91903}, {"id": "276u1hcv-cc9ff9d0e1b144fd81dff71ce34d7d1d", "title": "Red Fox Bar", "category": "Going Out", "lat": 50.94895, "lng": 6.92091}, {"id": "276u1hcv-bf870c2c40774d1c9789d8c04b9bbef4", "title": "Aroy D Thai Food", "category": "Snacks/Fast food", "lat": 50.94818, "lng": 6.92098}, {"id": "276u1hcv-92c45b2b870a4a4da2198b4d7d2a6520", "title": "Goodies", "category": "Snacks/Fast food", "lat": 50.94806, "lng": 6.92127}, {"id": "276d408k-1ff3e989186c058f2fa0f109def9f7d4", "title": "Orient Lounge", "category": "Going Out", "lat": 50.99789, "lng": 6.90764}, {"id": "276u1hfj-baaa82b1532647b99a85221d443bf861", "title": "Karin und Nanni's Nagelst\u00fcbchen", "category": "Service", "lat": 50.99748, "lng": 6.90798}, {"id": "276u1hfh-b2a05854abf54015af2641f4bad6e859", "title": "Gaststatte-Biergarten-Kiosk Beim Sascha", "category": "Restaurant", "lat": 50.99994, "lng": 6.88546}, {"id": "276u1hfh-6fed961628e941128036d0f5cf6e0c36", "title": "Marcel's Kiosk - Dartkneipe & Biergarten", "category": "Bar/Pub", "lat": 50.99994, "lng": 6.88546}, {"id": "276u1hcv-5ae1f40d3ad64f218fc17bb4bdf1a8b8", "title": "Maison Baguette", "category": "Snacks/Fast food", "lat": 50.94733, "lng": 6.923}, {"id": "276aabd1-ef834f67bbf60f5bbb59db5fcfacc658", "title": "The B\u00e4r", "category": "Educational Facility", "lat": 50.94691, "lng": 6.92161}, {"id": "276u1hcv-96020ffdad30458c93e6eb0feea140e7", "title": "Pizzeria Piccola L'Originale", "category": "Restaurant", "lat": 50.94667, "lng": 6.92429}, {"id": "276u1hcy-ce8b6e8cc52648b488dff3adcddec178", "title": "Schelds Em Oellig", "category": "Restaurant", "lat": 50.95504, "lng": 6.95659}, {"id": "276u1hfj-0856547fe8b1401eb46e26c918dda2a7", "title": "Yu Xin Lou Chinese Restaurant", "category": "Restaurant", "lat": 50.99438, "lng": 6.93181}, {"id": "276jx7ps-9f59bcdab7de03368009ff204cc2bdd1", "title": "Chinesische Mauer", "category": "Restaurant", "lat": 50.99438, "lng": 6.93181}, {"id": "2768lxx5-f7668005d59c032d58f8d7421447e128", "title": "Gemeinschaftszentrum K\u00f6ln", "category": "Religious Place", "lat": 50.99805, "lng": 6.91126}, {"id": "276jx7ps-5c1f632db4bd0279d7d08eaa10b00f5f", "title": "Kriegerplatz", "category": "Recreation", "lat": 50.99733, "lng": 6.90721}, {"id": "276d408k-23f7d4db60750b4fce357e35b63f44da", "title": "Kosmetikinstitut Finest", "category": "Service", "lat": 50.99937, "lng": 6.91439}, {"id": "276u1hcy-fc4163055aa0450eacc8c080c7b3720b", "title": "La Dolce Vita", "category": "Restaurant", "lat": 50.9498, "lng": 6.95678}, {"id": "276u1hcy-0b9d29f1bdbf433d94bba149997bab8b", "title": "NADA Restaurant Bar", "category": "Restaurant", "lat": 50.95333, "lng": 6.96577}, {"id": "276u1hfj-c47190b5b4634657a7ffc8d7a6f4ad49", "title": "Bundesamt f\u00fcr das Personalmanagement der Bundeswehr", "category": "Government or Community Facility", "lat": 51.000072, "lng": 6.920915}, {"id": "276u1hfj-c52ff96b8d32494ea8318170b6de12bd", "title": "Matthias Doering", "category": "Hospital or Healthcare Facility", "lat": 50.99889, "lng": 6.91861}, {"id": "276u1hfj-bc3e763a046d412889ed0594bd68e9ab", "title": "Commerzbank", "category": "ATM/Bank/Exchange", "lat": 50.99626, "lng": 6.92145}, {"id": "276u1hfj-74a4e2f7de374b8c94ad064931944ed0", "title": "Honorarkonsulat Mongolei", "category": "Government or Community Facility", "lat": 50.99905, "lng": 6.91482}, {"id": "276u1hfj-b9a63d92b05746d4bee2062e5cb06335", "title": "Hausgera\u0308TE Kundendienst Miesen", "category": "DIY/garden centre", "lat": 50.99888, "lng": 6.91438}, {"id": "276u1hfj-ed25aa17d62741429cfac0c2f9bb9507", "title": "Haus Baden Bautr\u00e4gergesellschaft", "category": "Business/Industry", "lat": 50.99565, "lng": 6.9217}, {"id": "276u1hfj-0d080e7743684c84a682db00a4955aee", "title": "Die Kantine", "category": "Dance or Nightclub", "lat": 50.99876, "lng": 6.93654}, {"id": "276u1hfj-5d449cbb0550488a972af16d831aea07", "title": "Yard Club", "category": "Dance or Nightclub", "lat": 50.99876, "lng": 6.93654}, {"id": "276u1hfj-5c857c3d9e3f43ed8c68e78cfd22f2fc", "title": "K\u00f6lner Rheinveilchen", "category": "Theatre, Music & Culture", "lat": 50.99876, "lng": 6.93654}, {"id": "276httek-ee773172477000a3943400e94be7e351", "title": "R\u00fcdell Eck", "category": "Bar/Pub", "lat": 50.99195, "lng": 6.93305}, {"id": "276u1hfj-5e8e6e239f9b454d988553960972ea6f", "title": "Scarlettallee K\u00f6ln", "category": "Theatre, Music & Culture", "lat": 51.010729, "lng": 6.93179}, {"id": "276u1hfj-fcbb4fdb3df54bdfac8e1bb91dfc7f91", "title": "Schmux", "category": "Shop", "lat": 50.99011, "lng": 6.93554}, {"id": "276u1hcy-1452f7188cc0478c932069ee94a776b6", "title": "T's Restaurant", "category": "Restaurant", "lat": 50.94764, "lng": 6.95331}, {"id": "276u1hcy-4c1a936348c44925806a27c3cc4ad16a", "title": "Restaurant L. Fritz im Hopper", "category": "Restaurant", "lat": 50.9483, "lng": 6.95995}, {"id": "276u1hfq-4b0c066f359d4348a72319d4efe8c607", "title": "Curry 'n' Spice", "category": "Restaurant", "lat": 51.03139, "lng": 6.98208}, {"id": "276l18c2-f1d06467a7fb0ac3b5fa90204998614c", "title": "Ingo Sch\u00e4fer", "category": "Business/Industry", "lat": 50.99832, "lng": 6.91373}, {"id": "276u1hfj-8b159063076744aea036372c9054b5f7", "title": "Sparkasse K\u00f6lnBonn", "category": "ATM/Bank/Exchange", "lat": 50.99796, "lng": 6.90381}, {"id": "276u1hfj-cd208a7060974a60a0b2aff0f8003c13", "title": "Seidel", "category": "Business & Services", "lat": 50.99787, "lng": 6.90362}, {"id": "276u1hfj-7db8349c41b74777bd43221f1c49bfbf", "title": "Mail Boxes Etc. - Zentrum Mbe 2678", "category": "Electronics", "lat": 50.99783, "lng": 6.90371}, {"id": "276u1hfj-85369ef6b7064f5d98db7c30d92123c9", "title": "Blumenhaus Heiliger", "category": "Shop", "lat": 50.99757, "lng": 6.90423}, {"id": "2768lxx5-369f69891099045a0a89bf4091778cd2", "title": "Paulx", "category": "Snacks/Fast food", "lat": 50.98779, "lng": 6.89269}, {"id": "276u1hfj-f43a8bb51a12466eb2d6b7280c12f165", "title": "K\u00f6ln, Longerich S-Bahn", "category": "Railway Station", "lat": 50.99831, "lng": 6.90255}, {"id": "276bma4v-a5a0e346b2af0ee2d50099916ec69bf0", "title": "Longerich", "category": "Parking Facility", "lat": 50.999387, "lng": 6.901663}, {"id": "276u1hcv-9c145318d7f14a62ab011310a700eed3", "title": "Truman Textilien GmbH", "category": "Clothing & Accessories", "lat": 50.94563, "lng": 6.90569}, {"id": "276u1hfj-d10415d5381a4fd1be962e665b64e30c", "title": "Fahrradtechnik P\u00fctzfeld", "category": "Outdoor Sports", "lat": 50.99719, "lng": 6.90685}, {"id": "276u1hfj-081b7ad6f1aa4f089c4dd967fd914269", "title": "\u00c4nderungsatelier Hatice Oca", "category": "Business & Services", "lat": 50.99745, "lng": 6.9048}, {"id": "276u1hfj-386b65ec50c14a7e958120f908fd41a7", "title": "Goldschmiede Sven Fischer", "category": "Going Out", "lat": 50.99745, "lng": 6.9048}, {"id": "276u1hcy-83666b5343194aa3ae14dc4f1588cd29", "title": "Schreckenskammer", "category": "Restaurant", "lat": 50.94592, "lng": 6.95376}, {"id": "276u1hfj-64c2aae51c1b401caab33537e63d4794", "title": "Breuer's Bikebahnhof", "category": "Outdoor Sports", "lat": 50.99809, "lng": 6.90234}, {"id": "276u1hfj-cb1e935145124f6a80142ab9af4d26f4", "title": "P+R Bahnhof K\u00f6ln-Longerich", "category": "Parking Facility", "lat": 50.99826, "lng": 6.90203}, {"id": "276u1hcu-63f242bea6274d02a4242ba1b995ee95", "title": "Pizza Cologne", "category": "Restaurant", "lat": 50.943185, "lng": 6.883705}, {"id": "2768lxx5-6a28e77526940fe6e96085d268b2ee5b", "title": "K\u00f6ln-Pesch - Longericher Str.", "category": "Shopping Centre", "lat": 50.99971, "lng": 6.88047}, {"id": "276u1hcv-7c119fdc1ac145c5b5dcc8519ce2f4f1", "title": "Schwazze Kobes", "category": "Bar/Pub", "lat": 50.94593, "lng": 6.92076}, {"id": "276jx7ps-03baf9c0c32009c0e09fdc34aaced398", "title": "Gasthaus Em Dorp", "category": "Restaurant", "lat": 50.94357, "lng": 6.88282}, {"id": "276u1hfj-a52eb487a04c4558a783294463f2bc36", "title": "EDEKA Markt Tom Engels e.K.", "category": "Food & Drink", "lat": 50.9974, "lng": 6.91357}, {"id": "276u1hfj-9bb7fde49e8442fc8dcf98b15f200859", "title": "Stadtbahn Meerfeldstra\u00dfe", "category": "Public Transport", "lat": 50.99534, "lng": 6.91982}, {"id": "276q9wpy-7bf93e303be7088c20e3e2b4abdc1b1d", "title": "Longerich Meerfeldstr.", "category": "Public Transport", "lat": 50.995216, "lng": 6.920821}, {"id": "276u1hfj-792e8df42b514c1a8841c8002b6b7a2a", "title": "Marienschule", "category": "Educational Facility", "lat": 50.996066, "lng": 6.924986}, {"id": "276u1hfj-4ed0db12fd0245308ab6dfa024121eee", "title": "St\u00e4dtische Kath. Grundschule", "category": "Educational Facility", "lat": 50.9956, "lng": 6.92417}, {"id": "276u1hfj-85f3e040e2ee4df1a0e7dda2b4231882", "title": "Gemeinschaftsgrundschule Gartenstadt", "category": "Educational Facility", "lat": 50.99555, "lng": 6.92409}, {"id": "276u1hcy-b231f92128b4446fb0774aecd557a421", "title": "La Fonda", "category": "Restaurant", "lat": 50.94352, "lng": 6.94486}, {"id": "276u1hcy-d0299b4c44e54999b76329190968066f", "title": "Classic Hotel Harmonie", "category": "Hotel", "lat": 50.94539, "lng": 6.95464}, {"id": "276u1hfj-4510e6a22e66443a993edf4fa5a2c362", "title": "Charlotten-Apotheke", "category": "Chemist's", "lat": 50.99751, "lng": 6.90436}, {"id": "276u1hfj-cd609e8c0a714365be736c3e34510ac3", "title": "IKEA K\u00f6ln-am Butzweilerhof", "category": "DIY/garden centre", "lat": 50.98464, "lng": 6.89817}, {"id": "276u1hfh-7b2b63bfdf5a4ee89b0d861d2e459aa3", "title": "Burger Culinarium", "category": "Restaurant", "lat": 50.98742, "lng": 6.88929}, {"id": "276u1hfh-351997473c6c4ae1840659c3db0ee782", "title": "Thai's", "category": "Restaurant", "lat": 50.98621, "lng": 6.89073}, {"id": "276d408k-660bc79fa19406c40ea3282608e9ab7e", "title": "Zahnarztpraxis Dr. Sabine Langhans", "category": "Hospital or Healthcare Facility", "lat": 50.99714, "lng": 6.90731}, {"id": "276u1hfj-f540439881c34ea791752842d736b954", "title": "Dr. Sabine Langhans", "category": "Hospital or Healthcare Facility", "lat": 50.99714, "lng": 6.90731}, {"id": "276u1hfj-8fa8f638301e486d8c5b075edde3f003", "title": "Reel Computer", "category": "Electronics", "lat": 50.99746, "lng": 6.91312}, {"id": "276u1hfj-193445455534465aad02cecaaa6f941f", "title": "B\u00e4ckerei Heinemann", "category": "Food & Drink", "lat": 50.99687, "lng": 6.91461}, {"id": "276u1hcv-ce4741bc7fed4e7694b2b255f3b62932", "title": "Nagoya Sushi & Grill", "category": "Restaurant", "lat": 50.94232, "lng": 6.94075}, {"id": "276u1hfj-7e041f8ae02c4c72939708992bbfb667", "title": "Conrad Kiosk", "category": "Service", "lat": 50.99501, "lng": 6.91988}, {"id": "276aabd1-1b433103b7220d618b60346bfabd33ec", "title": "Royal Iberico Steak House - Patanegra", "category": "Restaurant", "lat": 50.9423, "lng": 6.94161}, {"id": "276u1hfj-47c83526964c40bca8e30f0840d62218", "title": "Dr. med. Manfred F\u00fcsting", "category": "Hospital or Healthcare Facility", "lat": 50.99557, "lng": 6.92614}, {"id": "2768lxx5-a4719f3770200d3676dcdd8afd456c83", "title": "Akzente", "category": "Clothing & Accessories", "lat": 51.00012, "lng": 6.87958}, {"id": "276u1hfh-ccdd4368ea83469d9dfb6ed735f6145c", "title": "Lang Moden", "category": "Clothing & Accessories", "lat": 51.00012, "lng": 6.87958}, {"id": "2768lxx5-5ee37d62179b087d72fb3eef1457806b", "title": "Pizzeria da Ottavio", "category": "Restaurant", "lat": 50.99982, "lng": 6.87934}, {"id": "276u1hfj-76209bee1fbf42b2897b5a38604d0330", "title": "Babyone", "category": "Clothing & Accessories", "lat": 50.98383, "lng": 6.90018}, {"id": "2768lxx5-1c946bd50b1e0c77d74fd0467d85d956", "title": "Grillparadies", "category": "Restaurant", "lat": 51.00048, "lng": 6.8791}, {"id": "276u1hfj-5ccd512c8527439b80065fa85c00b0e9", "title": "Abc Profi Umz\u00fcge", "category": "Business & Services", "lat": 50.99544, "lng": 6.92581}, {"id": "276u1hfj-e7c158d13ebf4f7e84331e3fe2c9658d", "title": "Salon Lydia", "category": "Shop", "lat": 50.99544, "lng": 6.92581}, {"id": "276d408k-27f7b03d988501701d40a2b2719b42f8", "title": "G\u00fcney Saal", "category": "Theatre, Music & Culture", "lat": 50.99617, "lng": 6.94801}, {"id": "276u1hcy-1f4ac83dce3842a490c8669e62a8d539", "title": "Restaurant Brucken", "category": "Restaurant", "lat": 50.94587, "lng": 6.96123}, {"id": "276u1hfj-0301ac36f8bf4dab87065d25ac40dcaa", "title": "Altonaer Stra\u00dfe", "category": "Parking Facility", "lat": 50.99534, "lng": 6.92529}, {"id": "276u1hfj-89cea374e30544b2b42305430844b31a", "title": "Youngtour / Spectral Kinder- und Jugendreisen e.V.", "category": "Tourist Information", "lat": 50.9955, "lng": 6.93039}, {"id": "276u1hfn-88f3144931bd466faea27b91d67d29c7", "title": "Platin", "category": "Theatre, Music & Culture", "lat": 50.99611, "lng": 6.94906}, {"id": "276u1hcy-ff6504601fce467b9c3226831cfcf865", "title": "Plusch Bar & Lounge", "category": "Restaurant", "lat": 50.94529, "lng": 6.9612}, {"id": "276u1hcy-1c64b109223c4ed7a39106d148516377", "title": "Station Hostel for Backpackers", "category": "Hotel", "lat": 50.9439, "lng": 6.95603}, {"id": "276u1hfr-e507fc418caf4092bf1a0d554d0f120a", "title": "Gaststatte Kaiser", "category": "Restaurant", "lat": 51.0395, "lng": 6.99172}, {"id": "276u1hcy-259be603c3b443abb7a27cb84912f111", "title": "Brasserie Fou", "category": "Restaurant", "lat": 50.94514, "lng": 6.96115}, {"id": "276jx7ps-8e203d963af207e40b1bbd298ec66ec8", "title": "Hermes PaketShop", "category": "Post Office", "lat": 50.99742, "lng": 6.90453}, {"id": "276u1hfj-38219a1367124ef3831094b19b991c71", "title": "Csk Computer", "category": "Electronics", "lat": 50.99734, "lng": 6.90461}, {"id": "276u1hfj-2070bcb9ff1c4708ad26f950d328ec88", "title": "Metzgerei Gruner", "category": "Food & Drink", "lat": 50.99713, "lng": 6.90666}, {"id": "2768lxx5-2c41c50ddcea0e112f925a23381d43e1", "title": "Tattoostudio-Fifteen", "category": "Business & Services", "lat": 50.99709, "lng": 6.90671}, {"id": "276u1hfj-92cffcadc2ad463f8e4f3be5945c113e", "title": "Allianz Hauptvertretung Stephan Hungerland", "category": "Business & Services", "lat": 50.99724, "lng": 6.905}, {"id": "276u1hfj-3a8e6097056349c6affdd79822d8dbc1", "title": "St. Dionysius", "category": "Religious Place", "lat": 50.99709, "lng": 6.90639}, {"id": "2768lxx5-03b70403a0c206b4ed593843847502a3", "title": "Karl Falkenstein", "category": "Business & Services", "lat": 50.99726, "lng": 6.91326}, {"id": "276jx7ps-28f9eab8b6fb031ca2389300b0be3e5f", "title": "Hermes PaketShop", "category": "Post Office", "lat": 50.99686, "lng": 6.91443}, {"id": "276u1hfj-0550943f8ef04a5e9385ee81c4c61026", "title": "Claudia Jennes", "category": "Business & Services", "lat": 50.99686, "lng": 6.91443}, {"id": "276u1hfj-270ebfdfe31a45a2a266f8b8a356e59f", "title": "K\u00f6ln, Longerich Longericher Str.", "category": "Public Transport", "lat": 50.99598, "lng": 6.91573}, {"id": "276u1hcv-408a23c9ea0d46ad99124dc7a733704d", "title": "Alcazar", "category": "Restaurant", "lat": 50.94106, "lng": 6.93469}, {"id": "276u1hcy-9e5b583d01104d2aa858071b02f0b5ef", "title": "Monkey Bar Cologne", "category": "Bar/Pub", "lat": 50.9418, "lng": 6.94372}, {"id": "276u1hcv-3dccf68b8a92491291776d8e967cf101", "title": "Osho's Place", "category": "Restaurant", "lat": 50.94112, "lng": 6.93759}, {"id": "276u1hfn-ef8cc5d5fda44fc7afafbd78c529fcbd", "title": "Masala King", "category": "Restaurant", "lat": 50.98886, "lng": 6.94461}, {"id": "2768lxx5-028a81b2a07b0bbfebf767f6aa0e9225", "title": "Nordwald", "category": "Recreation", "lat": 50.99804, "lng": 6.933807}, {"id": "276jx7ps-383208efe53f0cc34fb949716ddc6090", "title": "Altonaer Platz", "category": "Recreation", "lat": 50.99498, "lng": 6.93249}, {"id": "276u1hfj-6e71ee3204234746b33050d069dd9d1d", "title": "W\u00e4scherei & Hei\u00dfmangel F\u00f6rster", "category": "Business & Services", "lat": 50.99498, "lng": 6.93249}, {"id": "276d408k-bf2e0fcab93505c98aba6b079abda665", "title": "Kunstpark K\u00f6ln - Open Air & Club", "category": "Dance or Nightclub", "lat": 50.99615, "lng": 6.9523}, {"id": "276u1hcy-b0f1c1dabdfe4cba9ce68bba34d68285", "title": "Restaurant Konrad", "category": "Restaurant", "lat": 50.94296, "lng": 6.95583}, {"id": "276u1hce-1d57edaa3a42451c82127eb71939b125", "title": "Moonlight Schlafsysteme", "category": "DIY/garden centre", "lat": 50.994586, "lng": 6.931925}, {"id": "2768lxx5-6a2239c3da9e022962c49ab3df434a04", "title": "Mc-Dog Dein Hundekindergarten", "category": "Shop", "lat": 50.99876, "lng": 6.93654}, {"id": "2768lxx5-6f5bd24eab5e04fcbbc77b9788ce0d1d", "title": "Schirm2000", "category": "DIY/garden centre", "lat": 50.99876, "lng": 6.93654}, {"id": "276u1hfn-2888d5580fd84a7e9a54d799b1480f31", "title": "Emmaus", "category": "Shop", "lat": 51.00243, "lng": 6.95169}, {"id": "276u1hfn-85e020e2c4604ab4af3e5a46ac883eef", "title": "We Love Cologne", "category": "Dance or Nightclub", "lat": 50.99608, "lng": 6.95265}, {"id": "2768lxx5-fe5cc7a4c8f00c5068d8e341a9283896", "title": "Homepark", "category": "Shopping Centre", "lat": 50.98384, "lng": 6.89847}, {"id": "276u1hf4-16a5e48361ba4f299f419977cd1e8be0", "title": "En Dr Pump", "category": "Restaurant", "lat": 50.99559, "lng": 6.80956}, {"id": "2768lxx5-7c264bde4ad00211c4236aed7e9b5093", "title": "Araksi Karanfiloglu", "category": "Car Dealer/Repair", "lat": 50.99876, "lng": 6.93654}, {"id": "276l18c2-6916b68f745204b556edc2b5f9dda723", "title": "Ventura Licht", "category": "DIY/garden centre", "lat": 50.99876, "lng": 6.93654}, {"id": "276aabd1-4d437c011b0f0b827ac58cb6f04ee987", "title": "Ellips Coffeehouse", "category": "Restaurant", "lat": 50.94268, "lng": 6.95545}, {"id": "276q9wpy-18dafd6f060c0637c807292084acab63", "title": "Longerich Dionysstr.", "category": "Public Transport", "lat": 50.99709, "lng": 6.90671}, {"id": "2768lxx5-fcc1126bba8b081c1cedd02fd4b2b75a", "title": "Haarstudio Au\u00dfergew\u00f6hnlich", "category": "Service", "lat": 50.99701, "lng": 6.90588}, {"id": "276jx7ps-3787042bb12308d793fbfe684682bccc", "title": "ROSSMANN", "category": "Shop", "lat": 50.99685, "lng": 6.91425}, {"id": "276u1hfj-40df7d84d28841ee926e3081f3688bbe", "title": "REWE", "category": "Food & Drink", "lat": 50.99685, "lng": 6.91425}, {"id": "276jx7ps-9b746d6667cc078872091bad8407aa1e", "title": "Parkplatz", "category": "Parking Facility", "lat": 50.99673, "lng": 6.91445}, {"id": "276u1hfj-beabbb6c47e2417d88d624049f156863", "title": "B\u00e4ckerei Hardt", "category": "Food & Drink", "lat": 50.99685, "lng": 6.91405}, {"id": "276u1hcv-9fe76ab9b7154c209bfed3489e5f42af", "title": "Park Inn by Radisson Cologne City West", "category": "Hotel", "lat": 50.94031, "lng": 6.92432}, {"id": "276u1hfj-c2a013a5a0e747c5ab730e9cab3ca4a9", "title": "Optik von Stephani", "category": "Hospital or Healthcare Facility", "lat": 50.99673, "lng": 6.91358}, {"id": "276u1hcy-5b804f33411d477390e32b746acc633a", "title": "Jameson Distillery Pub Cologne", "category": "Restaurant", "lat": 50.94109, "lng": 6.94368}, {"id": "276u1hfj-dc35e3ad06a84f50bc3af48e541de8d2", "title": "Edgar K\u00fcrten", "category": "Business & Services", "lat": 50.99476, "lng": 6.93354}, {"id": "276u1hcy-db2db598e3c1497abc8db5a0065d32cc", "title": "Daitokai", "category": "Restaurant", "lat": 50.9418, "lng": 6.95084}, {"id": "276u1hcv-8ff9886d12c54cbbb5601174b93a7698", "title": "P\u00e4ffgen", "category": "Restaurant", "lat": 50.94072, "lng": 6.94188}, {"id": "276aabd1-8475eef3796600373891e52477ed9210", "title": "Hommage", "category": "Restaurant", "lat": 50.94062, "lng": 6.94181}, {"id": "276u1hcy-7974b65ae80142929e45c0f686b8b07f", "title": "Comebuy Koln", "category": "Restaurant", "lat": 50.94234, "lng": 6.95512}, {"id": "276u1hcv-dd5d9b1cbb3f4f7c82275fcc8f3711ba", "title": "La Bodega", "category": "Restaurant", "lat": 50.94065, "lng": 6.94322}, {"id": "276u1hcv-1a03dcca98ca4861b0635a2f32317a90", "title": "Sorgenfrei", "category": "Restaurant", "lat": 50.94023, "lng": 6.93656}, {"id": "276q9wpy-f9e567f5bb9906e0eee80d378457a6ac", "title": "K\u00f6ln, Longerich Bremerhavener STR.", "category": "Public Transport", "lat": 50.997386, "lng": 6.936935}, {"id": "276u1hfj-5d7bbb79db61428d95d43195c085e5e1", "title": "Longerich Bremerhavener Str.", "category": "Public Transport", "lat": 50.997293, "lng": 6.936915}, {"id": "276moq2r-04584505e29e095da73e9e25c3819d1f", "title": "Coelln Gas", "category": "Petrol Station", "lat": 50.99876, "lng": 6.93654}, {"id": "2768lxx5-d05b629606810ce8f9294b7c3a5bbc31", "title": "Cafe Inside's SB-Kiosk", "category": "Coffee/Tea", "lat": 50.98633, "lng": 6.94614}, {"id": "276d408k-957b342ec2410bc1202b586794ba41ac", "title": "Gastst\u00e4tte Cfb Ford Niehl", "category": "Sport Facility/Venue", "lat": 50.99251, "lng": 6.95464}, {"id": "2768lxx5-c9f7d8a707720d6a747ff98d9fb83462", "title": "Cafe Aera", "category": "Restaurant", "lat": 50.98599, "lng": 6.94637}, {"id": "276u1hfn-297f861485384c61915f5e8b54ff138a", "title": "Outdoorfreakz Bootcamp", "category": "Dance or Nightclub", "lat": 51.010426, "lng": 6.943395}, {"id": "276u1hfn-8aa827eadbc942f08fe58a6a4b960e88", "title": "Trattoria am Sportplatz", "category": "Restaurant", "lat": 50.9924, "lng": 6.9548}, {"id": "2768lxx5-86dc9afb1d6c07062f0b19511fdca17f", "title": "Lotto Toto", "category": "Shop", "lat": 50.98563, "lng": 6.9461}, {"id": "2768lxx5-fcdf202b0b140383c7ba8f637430c262", "title": "Kaya", "category": "Snacks/Fast food", "lat": 50.98563, "lng": 6.9461}, {"id": "276u1hcy-61db95879934423b9f5393bd1044cd68", "title": "taku", "category": "Restaurant", "lat": 50.94216, "lng": 6.95645}, {"id": "276u1hcy-fef043afe9b84df18ec56c315ad36be6", "title": "Schweinske in Koln", "category": "Restaurant", "lat": 50.942458, "lng": 6.957995}, {"id": "276u1hfj-1e305c6c847d463f8b72d881e3834f6c", "title": "Praxis f\u00fcr Logop\u00e4die Uta Olschewsky", "category": "Hospital or Healthcare Facility", "lat": 50.99562, "lng": 6.90073}, {"id": "276u1hfj-6cefd90f853f4c45b252a77fe2632fe2", "title": "Gemeinschaftpraxis Dr. Olschewsky & Dr. Kuschmann", "category": "Hospital or Healthcare Facility", "lat": 50.99562, "lng": 6.90073}, {"id": "276u1hfj-9f8adc3ce179494b8873655948ad2b06", "title": "Praxis Fu\u0308R Logopa\u0308die - Uta Olschewsky & Sven Kuschmann", "category": "Hospital or Healthcare Facility", "lat": 50.99562, "lng": 6.90073}, {"id": "276u1hfj-da0f37112a524166937ff153d1fe3bb0", "title": "Zahnarztpraxis Dr. Julian Brandes", "category": "Hospital or Healthcare Facility", "lat": 50.99553, "lng": 6.90043}, {"id": "276u1hfn-bf9eb9d0e2e84316abddce2f26d7149a", "title": "Four Season", "category": "Restaurant", "lat": 50.98549, "lng": 6.94673}, {"id": "276u1hfn-7830ff88b38740a18f91bc21aafba3b9", "title": "Alt Merheim", "category": "Restaurant", "lat": 50.98549, "lng": 6.94673}, {"id": "276q9wpy-efe47bbae49b0045e045005c3c9958b8", "title": "Longerich Lindweilerweg", "category": "Public Transport", "lat": 50.99539, "lng": 6.90147}, {"id": "2768lxx5-140396913dd40ba4b51c1214d15ff4f0", "title": "Gelateria Zandarel", "category": "Food & Drink", "lat": 50.99707, "lng": 6.90517}, {"id": "276u1hfj-f568ace0b4a449b6bd2474df83cb32e1", "title": "Raiffeisenbank Frechen-H\u00fcrth", "category": "ATM/Bank/Exchange", "lat": 50.99707, "lng": 6.90517}, {"id": "2768lxx5-ee3cf27e347806f7f407697556d73cf7", "title": "76 Bar Seventysix", "category": "Going Out", "lat": 50.9969, "lng": 6.90543}, {"id": "276u1hfj-38a83d352fa449e29d7a4197a50f7fd2", "title": "Elan Drogerie", "category": "Shop", "lat": 50.9969, "lng": 6.90543}, {"id": "276jx7ps-0451a6852a630066978821be873fe7b1", "title": "Fahrradtechnik P\u00fctzfeld", "category": "Outdoor Sports", "lat": 50.99684, "lng": 6.90545}, {"id": "276u1hfj-19eaff47ba6d4ddf91364555828406f5", "title": "Christoph Downar", "category": "Shop", "lat": 50.99709, "lng": 6.90671}, {"id": "276jx7ps-0725f0cc9e2e04a32303b74741da8939", "title": "Alexander-Pet\u00f6fi-Platz", "category": "Recreation", "lat": 50.996, "lng": 6.91147}, {"id": "276u1hfj-62b0f71368d9497cac9edeff0ecfa641", "title": "St. Martin-Apotheke", "category": "Chemist's", "lat": 50.99653, "lng": 6.91355}, {"id": "276u1hfj-81539f50beea4c38b206964238fa398a", "title": "Dr. med. Paul Scharrenberg", "category": "Hospital or Healthcare Facility", "lat": 50.99653, "lng": 6.91355}, {"id": "276u1hfj-284437ab6c574118b0cf8e633af19ad5", "title": "Schlackstra\u00dfe", "category": "Parking Facility", "lat": 50.99492, "lng": 6.919}, {"id": "276u1hfj-6ce2e2e0a9da4dfbb73713e9c2308a7a", "title": "Longericher Markt", "category": "Public Toilet/Rest Area", "lat": 50.994988, "lng": 6.920029}, {"id": "2768lxx5-d4c0e5dd4b06013d925699db3fa3918c", "title": "Fu\u00dfpflege Habbig", "category": "Hospital or Healthcare Facility", "lat": 50.99614, "lng": 6.90767}, {"id": "276u1hfj-4982fedae6f94d3eb8c7577c53cadef8", "title": "K\u00f6ln, Longerich Friedhof", "category": "Public Transport", "lat": 50.99557, "lng": 6.91118}, {"id": "276u1hcv-006d03e21a104be1a6ec591ef8065f30", "title": "Madame Miammiam", "category": "Food & Drink", "lat": 50.94011, "lng": 6.93495}, {"id": "276u1hcv-05debe84679044a082f9dc974ba25e81", "title": "Bibimbab", "category": "Restaurant", "lat": 50.9401, "lng": 6.93795}, {"id": "276aabd1-e64b12388b19070e363b655fe28d6548", "title": "Turtle Bay", "category": "Restaurant", "lat": 50.94014, "lng": 6.93964}, {"id": "276u1hcv-032092ce303b4b2bb621ad0a1079d04c", "title": "Shaka Zulu", "category": "Restaurant", "lat": 50.93994, "lng": 6.93838}, {"id": "276u1hcv-2fac80a1fb184d329f37be193d4faea2", "title": "Youns Korean Soulfood Restaurant & Bar", "category": "Restaurant", "lat": 50.93982, "lng": 6.9379}, {"id": "276u1hfn-46e768773cc14997b5a2b10085055dbb", "title": "Efes Grill", "category": "Restaurant", "lat": 50.985118, "lng": 6.946957}, {"id": "276u1hfn-43bbf440505d42459874d051a3fc7577", "title": "China-Grill", "category": "Restaurant", "lat": 50.98403, "lng": 6.94386}, {"id": "276u1hfn-8969891aaf014996b9548839ac790673", "title": "Bulgogi-Haus", "category": "Restaurant", "lat": 50.98459, "lng": 6.94725}, {"id": "276jx7ps-6150402b9ac506d034856f62db9ef01f", "title": "Dr. med. Heinz H\u00fcsken", "category": "Hospital or Healthcare Facility", "lat": 50.99519, "lng": 6.90089}, {"id": "276u1hfj-796252d2b9be431eb26fed737ea676a9", "title": "Dr. med. Heinrich Antz", "category": "Hospital or Healthcare Facility", "lat": 50.99519, "lng": 6.90089}, {"id": "276u1hfj-f533ad00c5b4400e81b0459cfac66877", "title": "Dr. med. Roswitha Antz", "category": "Hospital or Healthcare Facility", "lat": 50.99519, "lng": 6.90089}, {"id": "276u1hfh-21a5172e40624541bcc047ed9639aa9e", "title": "Steaks aus aller Welt", "category": "Restaurant", "lat": 50.99843, "lng": 6.87744}, {"id": "276u1hfh-7786141dc3f24f24968b179b18fe8b7e", "title": "Pescher Bierst\u00fcbchen", "category": "Bar/Pub", "lat": 50.99834, "lng": 6.87736}, {"id": "276u1hfh-a7f9e23f86e54f65a95a682a5ba7b103", "title": "Pescher Brauh\u00e4uschen", "category": "Bar/Pub", "lat": 50.9988, "lng": 6.87741}, {"id": "2768lxx5-8e5898361c7e056f6ffccf63b99197d9", "title": "Mr. Fresh Toast", "category": "Food & Drink", "lat": 50.9988, "lng": 6.87741}, {"id": "276u1hfh-3954bd94d8ee4657b405c096aff4a568", "title": "Tabakwaren Zeitschriften Lotto", "category": "Shop", "lat": 50.9988, "lng": 6.87741}, {"id": "2768lxx5-69913d5081c80afc5ab224247bb57166", "title": "Kantine Dienstleistungszentrum Sparkasse K\u00f6lnBonn", "category": "Restaurant", "lat": 50.9845, "lng": 6.88835}, {"id": "276u1hcy-90e923a1b1344cc4a92436c005c530ec", "title": "Pullman Cologne", "category": "Hotel", "lat": 50.93992, "lng": 6.9458}, {"id": "276u1hfj-e83526e80e824ce28d410cc79e2f51bc", "title": "Sternsingerschule", "category": "Educational Facility", "lat": 50.996346, "lng": 6.904576}, {"id": "276u1hfj-bec90d25b82941e49530eeddaaab5289", "title": "Ayk Sonnenstudio", "category": "Service", "lat": 50.99678, "lng": 6.90511}, {"id": "2768lxx5-9d2b8459ccd90e22e954788f526f8e77", "title": "Friseurteam Lugmair", "category": "Service", "lat": 50.99669, "lng": 6.90531}, {"id": "276u1hfj-4526e2287c374ccea3c5e331f904c0b0", "title": "Friseursalon Gisella", "category": "Shop", "lat": 50.99669, "lng": 6.90531}, {"id": "276u1hfj-282bfe7508ca4036957f76809c798d33", "title": "Friedhof Longerich", "category": "Public Toilet/Rest Area", "lat": 50.995328, "lng": 6.911031}, {"id": "2768lxx5-a9e0e9f101d30c3950f07a5011cb0939", "title": "Zum Ahle Schlupp", "category": "Restaurant", "lat": 50.98247, "lng": 6.9171}, {"id": "276u1hfj-311ff4539f8a432ba22aa7bcb4860b22", "title": "Sigis Snack", "category": "Snacks/Fast food", "lat": 50.98247, "lng": 6.9171}, {"id": "276u1hfj-26e4663271cf4bf3972c522713bdf626", "title": "City-Toilette Longerich", "category": "Public Toilet/Rest Area", "lat": 50.99664, "lng": 6.914248}, {"id": "276u1hcv-40e999b15cb7449592ed42cabc904e1d", "title": "Sausalitos Koln Hohenzollernring", "category": "Restaurant", "lat": 50.93957, "lng": 6.93971}, {"id": "276u1hfj-d69a9b409fd847adb33adab581ffee46", "title": "Dr. Dieter Goebels", "category": "Hospital or Healthcare Facility", "lat": 50.99437, "lng": 6.93391}, {"id": "276l18c2-7ddea54f0274039fe22f33fffaca28a2", "title": "Dessous Danielle", "category": "Clothing & Accessories", "lat": 50.98391, "lng": 6.94662}, {"id": "276u1hfn-7b6b1187e6b24d2d84543c2dff8a9d3b", "title": "Eiscafe Forum", "category": "Restaurant", "lat": 50.98379, "lng": 6.94635}, {"id": "276jx7ps-d0d7ac32e4b70f4abf60cbbd307138b0", "title": "Damenunterw\u00e4sche", "category": "Clothing & Accessories", "lat": 50.98379, "lng": 6.94635}, {"id": "276u1hfn-6ea3b65ccd484eb2937e0f8188e7ee75", "title": "Echt K\u00f6lsch", "category": "Restaurant", "lat": 50.98353, "lng": 6.94752}, {"id": "276u1hfn-8d163b450c72429ba2712824eebb6086", "title": "Gaststatte Schutzenhof", "category": "Restaurant", "lat": 50.99056, "lng": 6.9595}, {"id": "276u1hfn-6e68e4f95bc04d47a4b1bfc3c83e76ae", "title": "Capone's Cologne", "category": "Restaurant", "lat": 50.98357, "lng": 6.94781}, {"id": "276u1hfn-91e366d7fea043e389f05c601328d851", "title": "Grill Restaurant Zeus", "category": "Snacks/Fast food", "lat": 50.9834, "lng": 6.94785}, {"id": "276u1hcy-1f90491b8da741f49eb3bbb778870fad", "title": "Geb\u00e4ude 9", "category": "Dance or Nightclub", "lat": 50.94839, "lng": 6.98638}, {"id": "276u1hfn-fc418d1e46b14b3f972abf748e012fd1", "title": "Niehl", "category": "Public Transport", "lat": 50.995941, "lng": 6.955296}, {"id": "276u1hfn-65bb8fc770104a2c874999dd53b0a726", "title": "K\u00f6ln, Niehl", "category": "Public Transport", "lat": 50.99591, "lng": 6.95521}, {"id": "276u1hfn-46aeb75409994371a3242ddc827d5281", "title": "Reifengarage GbR", "category": "Car Dealer/Repair", "lat": 50.998707, "lng": 6.954506}, {"id": "276u1hfn-2bb4dfe7095c426ab8c34e18edcb4d0c", "title": "Stepke Kita Niehler P\u00e4nz", "category": "Business & Services", "lat": 50.994511, "lng": 6.956248}, {"id": "276u1hfn-47107e3b93ca4e9680ea5fcade503829", "title": "Steeg Abbruch", "category": "Service", "lat": 50.99615, "lng": 6.9523}, {"id": "276u1hfn-741535ad3ffe42e68d7ae6ed0486c11f", "title": "Niehl Niehler Damm", "category": "Public Transport", "lat": 50.995677, "lng": 6.959773}, {"id": "276jx7ps-f210b929dc8f01b61bebb69474222466", "title": "SCHOMDORFs", "category": "Restaurant", "lat": 50.9899, "lng": 6.96143}, {"id": "276l18c2-5964f9b4837c08644c472cde6a9661f8", "title": "Pizzeria Uno", "category": "Restaurant", "lat": 50.98986, "lng": 6.96172}, {"id": "276u1hfn-631eb94de3ca45e9855b84a8e001224c", "title": "Imbiss & Pizza Niehler Grill", "category": "Restaurant", "lat": 50.98986, "lng": 6.96172}, {"id": "276u1hfn-db2dc7d60b474cf0abc76787ee079f82", "title": "Gastst\u00e4tte bei dr Bunn", "category": "Restaurant", "lat": 50.98963, "lng": 6.96165}, {"id": "276u1hfn-8dacc3804a53448bbd9cc6a2c6a6dd06", "title": "Hotel Restaurant Niehler Brauhaus", "category": "Hotel", "lat": 50.9892, "lng": 6.96122}, {"id": "2768lxx5-49ec5b6fd7bf09a295ea306aed930ab2", "title": "Eiscaf\u00e9 Piccolo", "category": "Food & Drink", "lat": 50.98907, "lng": 6.96152}, {"id": "2768lxx5-d2818feea6a1046675b2f739d5f1829a", "title": "Lederwaren Verkauf", "category": "Clothing & Accessories", "lat": 50.98894, "lng": 6.96152}, {"id": "2768lxx5-8a35f7d677740f34a386ba465d62fbf3", "title": "A-Dong Asiashop", "category": "Snacks/Fast food", "lat": 50.98881, "lng": 6.96151}, {"id": "2768lxx5-f422a15aa63a05fbde07e67425479099", "title": "Second Hand Aber Anders", "category": "Shop", "lat": 50.98846, "lng": 6.96121}, {"id": "276u1hfn-b7df58070601495b83b5531df97fdb60", "title": "Ma\u00df- und A\u0308Nderungsschneiderei Magdalinis", "category": "Clothing & Accessories", "lat": 50.98846, "lng": 6.96151}, {"id": "276jx7ps-6dde731b067c04fda2d8689ba2b49b93", "title": "Gaffel im Linkewitz", "category": "Restaurant", "lat": 50.98926, "lng": 6.96409}, {"id": "276d408k-4bf0d7c9df35027f0aeb76caf50197f2", "title": "Niehler Damm 149", "category": "Bar/Pub", "lat": 50.98858, "lng": 6.96452}, {"id": "276u1hfn-775c6ae8fecc4c29a96d067fe6e39771", "title": "La Lanterna", "category": "Restaurant", "lat": 50.98755, "lng": 6.96132}, {"id": "2768lxx5-2a5efc6477120acbd1fac1cee43aa2ae", "title": "Konditorei & Caf\u00e9 Robl", "category": "Food & Drink", "lat": 50.9871, "lng": 6.96102}, {"id": "276u1hfn-18e4f982bd0d44f98234fda362d948a1", "title": "Schauspielschule der Keller", "category": "Theatre, Music & Culture", "lat": 50.98549, "lng": 6.96529}, {"id": "276u1hfn-53fbf5753b6a4c73ac2fea79b015ce15", "title": "Hippodrom", "category": "Restaurant", "lat": 50.984, "lng": 6.95202}, {"id": "276aabd1-b361dc45fb510fd9342f33680748fd3c", "title": "Foodfest", "category": "Theatre, Music & Culture", "lat": 50.984, "lng": 6.95202}, {"id": "276u1hfn-115ed6f55b254d1f95b04db1fca79368", "title": "Gasthaus Tattersall an der Rennbahn", "category": "Restaurant", "lat": 50.984, "lng": 6.95202}, {"id": "2768lxx5-8396cb2aca090632b777e4e82badf669", "title": "Flohmarkt Pferderennbahn", "category": "Shop", "lat": 50.984, "lng": 6.95202}, {"id": "276aabd1-c0cc35c9ddb709e966b0d53c0a69870f", "title": "Sebastian Hoofs", "category": "Clothing & Accessories", "lat": 51.00145, "lng": 6.97636}, {"id": "276u1hfr-08ed95b40ba7497c8691bcefcfc7c980", "title": "Winner's Place im Lindner Leverkusen", "category": "Restaurant", "lat": 51.03927, "lng": 7.002}, {"id": "276u1hcy-98c6fceea45a459ea37ac7f5a53bb6de", "title": "Restaurant Gaststatte Lederer", "category": "Restaurant", "lat": 50.94069, "lng": 6.95621}, {"id": "276u1hcy-0c1c5134a0d04f45bbd8d67ecb5d7691", "title": "Funkhaus Cafe Bar Restaurant", "category": "Restaurant", "lat": 50.94054, "lng": 6.95603}, {"id": "276u1hcy-a17c0014295b44d881fbfc458a815241", "title": "Merzenich Backereien", "category": "Food & Drink", "lat": 50.94035, "lng": 6.95664}, {"id": "2768lxx5-06c1fca37d33055b9c8ec201408f342c", "title": "Prof.Dr.Med.Dent. Werner Becker", "category": "Hospital or Healthcare Facility", "lat": 50.99529, "lng": 6.96025}, {"id": "276u1hfn-c4cefd3b0a5045a68a9a4fddb829854b", "title": "Pfiffs Biertreff", "category": "Bar/Pub", "lat": 51.00154, "lng": 6.9776}, {"id": "276jx7ps-4ab2c86df114054d9d75cda55f1450c7", "title": "Reissdorf im Mondial", "category": "Restaurant", "lat": 50.9401, "lng": 6.96032}, {"id": "276u1hcy-c006073d8f9f4d7a89030a87433747e9", "title": "La Brasserie", "category": "Restaurant", "lat": 50.9401, "lng": 6.96032}, {"id": "276u1hfn-fd4e2255207b4ee59d1a0a31a6ddce9f", "title": "Tech-Soft", "category": "Business & Services", "lat": 50.99403, "lng": 6.95832}, {"id": "276q9wpy-6d7f1cec339c0bd28bf76e2d8050dc4d", "title": "K\u00f6ln, Niehl Niehler Damm", "category": "Public Transport", "lat": 50.99423, "lng": 6.96062}, {"id": "2768lxx5-70227b4e727f07f18085aca0b4d8bbc7", "title": "Pizzeria Coniglio", "category": "Restaurant", "lat": 51.00413, "lng": 6.97697}, {"id": "276u1hfn-26a49701939948b58a0105ae4826221d", "title": "Flittarder Hof", "category": "Restaurant", "lat": 51.0012, "lng": 6.97951}, {"id": "276u1hfn-75f52e97348049abaef094e0463e900c", "title": "M\u00fcgi's Dorf im - Biss", "category": "Restaurant", "lat": 51.00109, "lng": 6.97977}, {"id": "2768lxx5-5db67c6bd3f0074d674c5cc2df85f497", "title": "Eiscaf\u00e9 Roni", "category": "Food & Drink", "lat": 51.00124, "lng": 6.9797}, {"id": "2768lxx5-62ee8a04a24008092d22518051e5a1ff", "title": "Boloria", "category": "Business & Services", "lat": 50.9939, "lng": 6.96105}, {"id": "2768lxx5-3aa9815ea89b0fde98dfc8645ecd5705", "title": "Lenas Grill", "category": "Restaurant", "lat": 51.00112, "lng": 6.97991}, {"id": "276u1hfn-3fba4dd2562c40e9b4c139588c7f732b", "title": "Pizza Panini", "category": "Restaurant", "lat": 51.00174, "lng": 6.97984}, {"id": "276u1hfj-df1e2ae3711c40ad8eb8e72671ea4b35", "title": "Abacco's Steakhouse", "category": "Restaurant", "lat": 50.982062, "lng": 6.900453}, {"id": "276u1hfh-6524b72b536f4b36880a543c419cf0c8", "title": "Zum Backstein", "category": "Restaurant", "lat": 51.00119, "lng": 6.87742}, {"id": "276u1hfn-3bdb57fa3a5742c1951549856b27694d", "title": "Bernhard Helgert Malerbetrieb", "category": "DIY/garden centre", "lat": 50.9939, "lng": 6.96105}, {"id": "276u1hcy-7e98c31995bd4a489fb5e2817d48191e", "title": "Legends Bar", "category": "Restaurant", "lat": 50.9404, "lng": 6.96925}, {"id": "276u1hfj-2a73105c69a54f628d7d8605d4f7c27c", "title": "Haustechnik Jarosch & Zilken Ltd.", "category": "Service", "lat": 50.99557, "lng": 6.90377}, {"id": "276u1hfj-e5361b9f8b524e63978a4042c30a0811", "title": "Friedhof Longerich", "category": "Facility", "lat": 50.99501, "lng": 6.91156}, {"id": "276u1hfj-01ce25d66c4a43fa9aabf14d05c0e88c", "title": "Deutsche Bank", "category": "ATM/Bank/Exchange", "lat": 50.99605, "lng": 6.91359}, {"id": "276u1hfj-094457004b614f768d69c15fa0b73992", "title": "Fellinis", "category": "Restaurant", "lat": 50.98228, "lng": 6.91562}, {"id": "276u1hfj-f2aa611e56964a01b043f9d9c952fa8a", "title": "Reformhaus Georg Bach", "category": "Shop", "lat": 50.99605, "lng": 6.91359}, {"id": "276u1hfj-7473598434974f4cb5ad208151dc1f36", "title": "Hdi Versicherungen: Karl Josef Schneider", "category": "Business & Services", "lat": 50.9959, "lng": 6.91357}, {"id": "276u1hfj-c69ce74f28584dcebdcfc02cb3f845e8", "title": "Longerich Longericher Str.", "category": "Public Transport", "lat": 50.996279, "lng": 6.914126}, {"id": "276httek-fc886eca4a8f053ad8487cf81c9852d2", "title": "Friseursalon Fundament", "category": "Service", "lat": 50.99569, "lng": 6.91363}, {"id": "276jx7ps-8f91e3e6b8c3064fdd71598d862090ca", "title": "Nadia Younes", "category": "Hospital or Healthcare Facility", "lat": 50.99522, "lng": 6.92549}, {"id": "276u1hcv-e45b65759d1c42df975ba06e6114cc3c", "title": "Shanghai Kuche", "category": "Restaurant", "lat": 50.93935, "lng": 6.93871}, {"id": "276u1hcv-fffc0b7d92734246a9950df437eb6655", "title": "Cleanicum", "category": "Coffee/Tea", "lat": 50.93909, "lng": 6.93483}, {"id": "2768lxx5-e5c9005226b40a41d4dc29358e645ea1", "title": "Markus Po\u00e9tes", "category": "Recreation", "lat": 50.99386, "lng": 6.93104}, {"id": "276u1hcv-2644c0352fa84bcebc5bbd7a11ece9cc", "title": "Chin-Burger", "category": "Restaurant", "lat": 50.93909, "lng": 6.93886}, {"id": "276jx7ps-4adab33172680db49cd287ac39305298", "title": "Restaurant \"Orangerie\"", "category": "Restaurant", "lat": 50.93972, "lng": 6.94613}, {"id": "276u1hfj-87c55734eb9c47998ad159db153fe8ab", "title": "Stadtbahn Altonaer Platz", "category": "Public Transport", "lat": 50.99398, "lng": 6.93341}, {"id": "276u1hfj-c25d707796764b7883c0f66eb31d1fb9", "title": "ARAL", "category": "Petrol Station", "lat": 50.99318, "lng": 6.94018}, {"id": "276u1hfn-7aca0868a355419b9e9934a90bfdcb9e", "title": "Pizza Hot", "category": "Restaurant", "lat": 50.98279, "lng": 6.94763}, {"id": "276u1hfn-9f03c5d3ee6b43caa2103927d80f9f22", "title": "Merzenich", "category": "Food & Drink", "lat": 50.99615, "lng": 6.94978}, {"id": "2768lxx5-c89d2f95664b078cc2728d3869a88922", "title": "Kleintierpraxis K\u00f6ln", "category": "Hospital or Healthcare Facility", "lat": 50.99325, "lng": 6.93785}, {"id": "276u1hfj-801f884e146d4bcab1d827b5a9146c4c", "title": "Tierarzt Dr.Matter", "category": "Hospital or Healthcare Facility", "lat": 50.99325, "lng": 6.93785}, {"id": "276u1hfj-44e2f57e986c4eea84321d3299c78f3d", "title": "Klaus-Peter Heine Immobilienverwaltungs", "category": "Business & Services", "lat": 50.99264, "lng": 6.93987}, {"id": "276aabd1-1eec1ffb1a8d04a30636c726069ebfce", "title": "Hotel Fortune", "category": "Hotel", "lat": 50.99611, "lng": 6.94906}, {"id": "276jx7ps-b87b2fd9e03302dd2b9eeab05a9792b3", "title": "KGV Longerich", "category": "Recreation", "lat": 50.99437, "lng": 6.89916}, {"id": "276u1hfh-6b582c7a0b674b3bb144ee2194211814", "title": "Latio", "category": "Restaurant", "lat": 50.99769, "lng": 6.87596}, {"id": "2768lxx5-a977fd69de0d0fc8864f35339fa59d12", "title": "City Grill Saloniki", "category": "Restaurant", "lat": 51.00173, "lng": 6.8776}, {"id": "2768lxx5-3e8ec1b94d8f0882aa4fb4bf35fcc96c", "title": "Pescher Dienstagszug", "category": "Theatre, Music & Culture", "lat": 51.001415, "lng": 6.877291}, {"id": "276aabd1-a320bbf7514a00d53a79d414f0c40a01", "title": "Cantinetta Trattoria & Bar", "category": "Restaurant", "lat": 50.93869, "lng": 6.90929}, {"id": "276jx7ps-c118dfbdb5c00ed26fa6ba9fdc4d7f22", "title": "K\u00f6lner Bank eG", "category": "ATM/Bank/Exchange", "lat": 50.9958, "lng": 6.91412}, {"id": "276u1hfj-0dcd0f8cf298406e88248d45e89b36ad", "title": "Malibu Sun", "category": "Service", "lat": 50.9958, "lng": 6.91412}, {"id": "276u1hfj-c132cfe4240b47ec8f2320aa10912e99", "title": "Pizza & Grill Haus", "category": "Eat & Drink", "lat": 50.9958, "lng": 6.91412}, {"id": "276jx7ps-056b520b84ca02228c890828b43089de", "title": "Immanuel Kirche", "category": "Religious Place", "lat": 50.99391, "lng": 6.92045}, {"id": "276u1hfj-03010ff8617245aeb8b0ab4342ee055d", "title": "Gartenstadt Apotheke", "category": "Chemist's", "lat": 50.99522, "lng": 6.92549}, {"id": "276u1hfj-81941e7a235e4ae28397b7aed3fee526", "title": "Stadtbahn Herforder Stra\u00dfe", "category": "Public Transport", "lat": 50.99471, "lng": 6.92612}, {"id": "276u1hcy-1398526cde9e4e0496686ec1b83a8083", "title": "HASE", "category": "Restaurant", "lat": 50.93948, "lng": 6.94558}, {"id": "276u1hfj-9fff0e4169e646dfb48e4b452e078ecd", "title": "Stadtbahn Wilhelm-Sollmann-Stra\u00dfe", "category": "Public Transport", "lat": 50.99203, "lng": 6.94123}, {"id": "276u1hfj-71449bc7e6e840169fb5dcfd037ded95", "title": "K\u00f6ln, Longerich Wilhelm-Sollmann-STR.", "category": "Public Transport", "lat": 50.991931, "lng": 6.941026}, {"id": "276u1hfn-8b0b7986f3ee4693b24cca38ea5e25e6", "title": "Kolner City Bus Tour", "category": "Sights & Museums", "lat": 50.99611, "lng": 6.94906}, {"id": "2768lxx5-c090b65abe2b08a478c5f0f3f9773d9b", "title": "Gastst\u00e4tte im St\u00fcffgen", "category": "Restaurant", "lat": 50.982, "lng": 6.948}, {"id": "276u1hfn-6a4276dd21894f3c94aa7670a8f98ef9", "title": "Em St\u00fcffje", "category": "Restaurant", "lat": 50.982, "lng": 6.948}, {"id": "276httek-e3f84ac3e6260d7c7bd790464d1fbb16", "title": "Lena's St\u00fcffje", "category": "Bar/Pub", "lat": 50.982, "lng": 6.948}, {"id": "276u1hfn-1152e32017f84b0681fc915dc0c6c4d8", "title": "Gemeinde auf dem Fels", "category": "Religious Place", "lat": 50.99617, "lng": 6.94801}, {"id": "276u1hfn-9653bab5a1834fb593b2a6549fa8c34d", "title": "Foundation Olangi-Wosho", "category": "Government or Community Facility", "lat": 50.99617, "lng": 6.94801}, {"id": "276u1hfn-7e9ad1db2aed4cb495a46507b7fc5cbd", "title": "Heinrich Bauer Produktions", "category": "Service", "lat": 50.99814, "lng": 6.94798}, {"id": "276u1hfn-2bd3cccac372464ab9916f5cf5863083", "title": "Dr. med. Frieder G\u00f6tz Hutterer", "category": "Hospital or Healthcare Facility", "lat": 50.99296, "lng": 6.95732}, {"id": "276jx7ps-3ddb926765b90026d5aa16ba77a1e31b", "title": "Pfarrer-Heller-Park", "category": "Recreation", "lat": 50.99405, "lng": 6.904}, {"id": "2768lxx5-0b919e42d48c074dceb6e081c604a872", "title": "Hundezentrum Hundeprofi-K\u00f6ln", "category": "Business & Services", "lat": 50.99427, "lng": 6.91497}, {"id": "2768lxx5-7f837d466ba70c2fef2b54ffed77296f", "title": "Horst Waffenschmidt", "category": "Business & Services", "lat": 50.99387, "lng": 6.91539}, {"id": "276jx7ps-8e43091d27f6034973055c7bd30e2377", "title": "Dr. med. dent. Uta Stelten", "category": "Hospital or Healthcare Facility", "lat": 50.99506, "lng": 6.92544}, {"id": "2768lxx5-0492c90adeeb0eac072bfb4bbdd62cc2", "title": "Michael J\u00e4ger", "category": "Business & Services", "lat": 50.99356, "lng": 6.92869}, {"id": "276u1hfj-29dc1401f0604e679086c7fc0770e2a7", "title": "M\u00fcnch-Optik", "category": "Hospital or Healthcare Facility", "lat": 50.99443, "lng": 6.9264}, {"id": "2768lxx5-df33162240b1086168c7c29b1905f065", "title": "Gastst\u00e4tte zum U-Bahneck", "category": "Restaurant", "lat": 50.982381, "lng": 6.968128}, {"id": "276jx7ps-143f1729a82b0a275aad8398a75a7329", "title": "Hermes PaketShop", "category": "Post Office", "lat": 50.99265, "lng": 6.95841}, {"id": "276jx7ps-8fc0655e069d0d28ce17158a4423d192", "title": "Alt-St. Katharina", "category": "Religious Place", "lat": 50.99262, "lng": 6.96196}, {"id": "276jx7ps-d6677f47ea590699a14b98184a029659", "title": "SHK Anlagen", "category": "Business & Services", "lat": 50.99429, "lng": 6.90091}, {"id": "2768lxx5-5a95c8dad2b8087434dae278a278f96a", "title": "Die Gartenprofis", "category": "DIY/garden centre", "lat": 50.99375, "lng": 6.91549}, {"id": "2768lxx5-f44512af385f023a216e9f89d1d5dd7b", "title": "Bastelburger", "category": "Eat & Drink", "lat": 50.99447, "lng": 6.92523}, {"id": "276u1hfj-7e34efc8eaa74832bcca658c9af9aca8", "title": "Sparkasse K\u00f6lnBonn", "category": "ATM/Bank/Exchange", "lat": 50.99432, "lng": 6.92619}, {"id": "2768lxx5-391bbc93662c02f668829d18a9073ebf", "title": "Dr. med. Stephan Wolter", "category": "Hospital or Healthcare Facility", "lat": 50.99446, "lng": 6.92596}, {"id": "276u1hfj-90b4902276fe4d319e497e5b4ee3456a", "title": "REWE City", "category": "Food & Drink", "lat": 50.99446, "lng": 6.92596}, {"id": "276u1hfj-1c03c2313ba64cf0ab303699ec2bd954", "title": "Dr. med. Martin Stankowski", "category": "Hospital or Healthcare Facility", "lat": 50.99333, "lng": 6.9336}, {"id": "276u1hfj-787d6cd53c194cf4859b01801852b8cc", "title": "Fasanen-Apotheke", "category": "Chemist's", "lat": 50.99333, "lng": 6.93346}, {"id": "276u1hfj-60be2050f53649c98b172be9aa2eb831", "title": "Hypno-Well", "category": "Hospital or Healthcare Facility", "lat": 50.99109, "lng": 6.94126}, {"id": "276u1hfj-45c60919a25742bf8f7644ed7cfed667", "title": "Michael Schumacher Private Collection", "category": "Theatre, Music & Culture", "lat": 50.98027, "lng": 6.90138}, {"id": "276jx7ps-6063e22da83001d5408e7e868b2bab89", "title": "\u00c4thiopisch Orthodoxe Sankt Michaels-Kirche", "category": "Religious Place", "lat": 50.99325, "lng": 6.90237}, {"id": "2768lxx5-555de8a072490ff45eb12cd38bfe25f5", "title": "Fu\u00dfball-Verband Mittelrhein", "category": "Sport Facility/Venue", "lat": 50.99173, "lng": 6.90882}, {"id": "276u1hfj-5aa0ea7d70fa42b0957af4aa2c793057", "title": "Ambiente & Floristik Schiefer", "category": "Shop", "lat": 50.99289, "lng": 6.91565}, {"id": "276u1hfj-3989b908511e49df99579e6c2c0badda", "title": "REWE", "category": "Food & Drink", "lat": 50.99454, "lng": 6.92559}, {"id": "2768lxx5-fc786bbc248d04f40d3f7bfd5e6e14ca", "title": "Haus Schubert", "category": "Service", "lat": 50.99415, "lng": 6.92552}, {"id": "276u1hfj-c0e1f7fb75624698bfc99e61b476d74e", "title": "Ho\u0308Rgera\u0308TE Lorsbach", "category": "Hospital or Healthcare Facility", "lat": 50.99446, "lng": 6.92596}, {"id": "276u1hfj-e53ec8f0be5a41f0bd2e86d41a8b23d9", "title": "Dr. med. Petra Scheer", "category": "Hospital or Healthcare Facility", "lat": 50.99446, "lng": 6.92596}, {"id": "2768lxx5-05e2a9243e0f0e3b094cb4f5a685a445", "title": "Shiatsuma\u00dfage K\u00f6ln", "category": "Sport Facility/Venue", "lat": 50.99109, "lng": 6.94082}, {"id": "2768lxx5-32c41522d7e00a80e39a807d69ecda3a", "title": "Hayri G\u00fcrhan", "category": "Business & Services", "lat": 50.99109, "lng": 6.94082}, {"id": "276u1hfj-b24668959eb545e59ee0828d5c3e1db3", "title": "Stephan Aisslinger", "category": "DIY/garden centre", "lat": 50.99108, "lng": 6.94288}, {"id": "276u1hfn-e53b0e9fda854541a5b02339ea4c85f7", "title": "Espresso Point", "category": "Coffee/Tea", "lat": 50.98031, "lng": 6.948}, {"id": "276u1hfn-52ab2f2d922842ebad9bc80d2ea5384b", "title": "B\u00e4ckerei Konditorei Adolph", "category": "Shop", "lat": 50.98031, "lng": 6.948}, {"id": "276jx7ps-37a35d54562d04a262d2e840ed94ef91", "title": "CFB Ford Niehl Sportplatz", "category": "Sport Facility/Venue", "lat": 50.9923, "lng": 6.95336}, {"id": "276u1hfh-ecc24870c0674ec5b11daafba26b3630", "title": "La Trattoria da Toni", "category": "Restaurant", "lat": 50.9954, "lng": 6.87309}, {"id": "276u1hfh-0c464f27cae54a46be74a7e40f9a1461", "title": "Am N\u00fcssenberger Hof, K\u00f6ln", "category": "Theatre, Music & Culture", "lat": 50.986635, "lng": 6.876209}, {"id": "2768lxx5-7972f40d2ab00bf91cc11b7d3839f6c1", "title": "Karla-die Lackprofis Karosserie- und Lackierzubeh\u00f6r", "category": "Car Dealer/Repair", "lat": 50.991697, "lng": 6.907789}, {"id": "2768lxx5-aa881b67c13102ddbb4d613cd2e13e30", "title": "Klw-Karosserieteile- Lackierbedarf-Werkzeuge", "category": "Car Dealer/Repair", "lat": 50.991697, "lng": 6.907789}, {"id": "276u1hfj-6e76711862024aca908f86ed4f2a7afa", "title": "Devk Versicherung: Manfred Peschel", "category": "Business & Services", "lat": 50.99145, "lng": 6.90548}, {"id": "2768lxx5-816f847f37dd05b11d78852fb1cea164", "title": "Teschauer Consulting", "category": "Service", "lat": 50.99237, "lng": 6.91318}, {"id": "276u1hfj-9cef1f08e40d47a78cda747695f226cd", "title": "St. Bernhard", "category": "Religious Place", "lat": 50.99262, "lng": 6.91575}, {"id": "276d408k-421b1b2c6d9e025ab74ff2f085025827", "title": "Kinderarzt Dr. Wenning", "category": "Hospital or Healthcare Facility", "lat": 50.99246, "lng": 6.91561}, {"id": "276u1hfj-3b152b780cf94d129c995c5bc462f337", "title": "Dr. med. Heribert Wenning", "category": "Hospital or Healthcare Facility", "lat": 50.99246, "lng": 6.91561}, {"id": "276u1hfj-554f8938407e4faeb15ec14e0b53da1e", "title": "Gastst\u00e4tte Ginsterst\u00fcbchen", "category": "Service", "lat": 50.992367, "lng": 6.915577}, {"id": "2768lxx5-013c0e5df0ce0b555413dfb0e5b858c4", "title": "Dunkel Design", "category": "Shop", "lat": 50.99121, "lng": 6.93872}, {"id": "276u1hfn-a5b5775850e547dbacde16e57b619489", "title": "Zur Alten Zollgrenze", "category": "Restaurant", "lat": 50.97972, "lng": 6.94814}, {"id": "276jx7ps-762927809db80221f99febac0713059c", "title": "KGV Niehl in der Mulde", "category": "Recreation", "lat": 50.99222, "lng": 6.95354}, {"id": "276u1hfn-5774694a428e421e8ffd87d658197eda", "title": "Im Grund", "category": "Parking Facility", "lat": 50.9921, "lng": 6.95426}, {"id": "276jx7ps-1c10ec6c493e06ce4e6869d5c0c560b4", "title": "Sportplatz Pastor-Wolff-Stra\u00dfe", "category": "Sport Facility/Venue", "lat": 50.99208, "lng": 6.95426}, {"id": "276q9wpy-59c6a9422cbd03bacda6f8ddd59f0931", "title": "K\u00f6ln, Niehl Halfengasse", "category": "Public Transport", "lat": 50.99231, "lng": 6.95873}, {"id": "276u1hfn-2b28500fa91e43f18f860b0d221b842a", "title": "Wochenmarkt-Niehl", "category": "Shop", "lat": 50.97978, "lng": 6.96407}, {"id": "276jx7ps-584e4f2a913509891c6dca719d8a7ffd", "title": "Sparkasse K\u00f6lnBonn", "category": "ATM/Bank/Exchange", "lat": 50.98992, "lng": 6.89316}, {"id": "2768lxx5-2a700c85f2260347a0a68fad92c631f7", "title": "Selgros Cash & Carry", "category": "Shop", "lat": 50.98966, "lng": 6.89362}, {"id": "276l18c2-74b1e5b2dd540fee5ecb5560b16378a6", "title": "La Trattoria da Toni", "category": "Restaurant", "lat": 50.99628, "lng": 6.87243}, {"id": "2768lxx5-5e26212341b10a3bb5e95e61bf1a0122", "title": "Schumacher", "category": "Shop", "lat": 51.00009, "lng": 6.8744}, {"id": "2768lxx5-d4cb0cd5ff0d094befb43f04d067dde4", "title": "Sparkasse K\u00f6lnBonn Firmencenter K\u00f6ln-Nord und -West", "category": "ATM/Bank/Exchange", "lat": 50.99148, "lng": 6.90422}, {"id": "276u1hfj-2c0b1df496d54a36a8287365f2b64e05", "title": "Sochiera & Nelles Steuerberatungsges. mbH", "category": "Business & Services", "lat": 50.99148, "lng": 6.90422}, {"id": "276d408k-d789bd4dc8ec0ea0120037d6b2d7a923", "title": "Otr Performance GmbH", "category": "Car Dealer/Repair", "lat": 50.9914, "lng": 6.90844}, {"id": "2768lxx5-05a66df40815014e4aaf943e4e1cb473", "title": "K\u00f6lner-Hausmeisterdienst Frank Reuter Verwaltung", "category": "Service", "lat": 50.99114, "lng": 6.90741}, {"id": "276u1hfj-e2af10f0b58e4025ab67a7201aa07f43", "title": "Wax & Sohn", "category": "Car Dealer/Repair", "lat": 50.99128, "lng": 6.90928}, {"id": "276u1hfj-77a5fd885e69490da68f8558b34570ef", "title": "Heilig-Geist-Krankenhaus in K\u00f6ln", "category": "Hospital", "lat": 50.99207, "lng": 6.92397}, {"id": "276u1hfj-62ddffc88e6a451c8eca3ce273a46d64", "title": "Graseggerstra\u00dfe", "category": "Parking Facility", "lat": 50.99228, "lng": 6.92471}, {"id": "276u1hfj-22019bb3a1a1432f932dfce3ed70c671", "title": "Heilig Geist Apotheke", "category": "Chemist's", "lat": 50.99221, "lng": 6.92471}, {"id": "2768lxx5-40b70c6736c40f35d051ead7115e3dd2", "title": "Olga Schubert", "category": "Service", "lat": 50.99266, "lng": 6.9266}, {"id": "2768lxx5-5baefb39996e0566557f543b4d9ea86e", "title": "Makellose Haut", "category": "Service", "lat": 50.99266, "lng": 6.9266}, {"id": "2768lxx5-317e396d4e75056e426b546ac1f61ad4", "title": "Fl\u00e4mmschen", "category": "Restaurant", "lat": 50.97951, "lng": 6.94391}, {"id": "2768lxx5-d7d8b07b5a460ba53eeef90704c34ecb", "title": "Delta Plus", "category": "Service", "lat": 50.99028, "lng": 6.88996}, {"id": "276u1hfh-00b666acaa56400e804b6a2e6cf5d4b2", "title": "Samisign Media", "category": "Business & Services", "lat": 50.98993, "lng": 6.89024}, {"id": "276u1hfh-66320ffd98394f03bc4133e70d4a23ec", "title": "K\u00f6ln, Ossendorf am Coloneum", "category": "Public Transport", "lat": 50.98933, "lng": 6.89182}, {"id": "276u1hfj-55deff3cfc8042bf9fb729958690ad32", "title": "Bss Arbeitssicherheit", "category": "Educational Facility", "lat": 50.99085, "lng": 6.90475}, {"id": "276u1hfj-3cc73219cfff4b2d8b26b738d2af3e15", "title": "Lindner-Druck", "category": "Business/Industry", "lat": 50.9912, "lng": 6.90937}, {"id": "276u1hfj-e070224919654cd1bc70fbf09949e4c6", "title": "Pelken & M\u00fchlenz Bauunternehmung", "category": "Business & Services", "lat": 50.99106, "lng": 6.90956}, {"id": "276u1hfj-1c1a6d7175524811bdb47dee9cd00dc3", "title": "Utha Spellerberg", "category": "Hospital or Healthcare Facility", "lat": 50.99158, "lng": 6.91423}, {"id": "2768lxx5-8620f888e0620d4e30d3fcb0864e1b9e", "title": "Peppino", "category": "Restaurant", "lat": 50.9789, "lng": 6.92191}, {"id": "2768lxx5-2d87a1b64ab10eb8c6f89e3bee7ab50c", "title": "Dermatologische Praxis", "category": "Hospital or Healthcare Facility", "lat": 50.99164, "lng": 6.92409}, {"id": "2768lxx5-d203d4ec5a9206b24aec636f0b37dac4", "title": "Dr. med. Christian Hackenbroch", "category": "Hospital or Healthcare Facility", "lat": 50.99164, "lng": 6.92409}, {"id": "276l18c2-0ea26326c8740d060bb125bae9bfc7cc", "title": "Medizinisches Gutachten Institut a. Mei\u00dfner", "category": "Hospital or Healthcare Facility", "lat": 50.99164, "lng": 6.92409}, {"id": "276u1hfj-53e02c41cbc54979aefcbdc5a4af26cb", "title": "Dr. med. Grischa Terheggen", "category": "Hospital or Healthcare Facility", "lat": 50.99164, "lng": 6.92409}, {"id": "276u1hfj-781538cc0bd448889fc658e571371370", "title": "Gastropraxi K\u00f6ln Nord", "category": "Hospital or Healthcare Facility", "lat": 50.99164, "lng": 6.92409}, {"id": "2768lxx5-b7c98a23651c02157235eb31e02c3456", "title": "Wolfgang Bayer", "category": "Business & Services", "lat": 50.99109, "lng": 6.94082}, {"id": "2768lxx5-0db3ffc3c7bc0bbb47e688547838c82c", "title": "Record-Consult", "category": "Business & Services", "lat": 50.98962, "lng": 6.88812}, {"id": "276u1hfh-319baab5de164f8bba80f270423625d4", "title": "Mib Akademie", "category": "Educational Facility", "lat": 50.98858, "lng": 6.89627}, {"id": "276u1hfh-a066e65cc9ac424fbcfc03f84146463c", "title": "Tr\u00f6delmarkt in Pesch", "category": "Shop", "lat": 51.00221, "lng": 6.876091}, {"id": "2768lxx5-dc73c09116250ae45951884cd2e0d116", "title": "Gagfah Group", "category": "Business & Services", "lat": 50.99054, "lng": 6.90586}, {"id": "2768lxx5-0df0c49a57d30ffb8e2940f44990c71e", "title": "Peter Wachendorf", "category": "Business & Services", "lat": 50.99115, "lng": 6.91437}, {"id": "276d408k-cbf32e62f0e70521e309637c754cc895", "title": "Tier-Kindergarten", "category": "Business & Services", "lat": 50.99089, "lng": 6.91012}, {"id": "276u1hfj-89f25d0e5f7049568ef92291d5fc6259", "title": "Dr. med. Michael Boedler", "category": "Hospital or Healthcare Facility", "lat": 50.99164, "lng": 6.92409}, {"id": "2768lxx5-db809188bf7c0b8b45db64cfa98b79f4", "title": "Prophysio", "category": "Sport Facility/Venue", "lat": 50.99178, "lng": 6.92572}, {"id": "276u1hfn-6396e808afb54192a8146ad39db5d860", "title": "LIDL, Neusser Stra\u00dfe", "category": "Food & Drink", "lat": 50.98954, "lng": 6.94506}, {"id": "2768lxx5-78caf715f2c80a9037f820a08c8daeec", "title": "Getr\u00e4nkemarkt Falko", "category": "Food & Drink", "lat": 50.9908, "lng": 6.96159}, {"id": "276u1hfn-7c35a05d10e540adae08ab22aa29f281", "title": "McDonald's (McDrive)", "category": "Snacks/Fast food", "lat": 50.97944, "lng": 6.969}, {"id": "276u1hfn-2d865c37ac384c22b63c8fb691843d1f", "title": "McCaf\u00e9", "category": "Coffee/Tea", "lat": 50.97944, "lng": 6.969}, {"id": "276u1hfh-53f83325346b4df2aeb02a6727285bd5", "title": "Schmeichel Catering - Ossendorf Technologiecenter", "category": "Restaurant", "lat": 50.97813, "lng": 6.88993}, {"id": "276u1hfn-c72b573c8d844ebeacd39dc355804c03", "title": "Cre.Haar.Tiv", "category": "Shop", "lat": 50.99026, "lng": 6.96145}, {"id": "2768lxx5-a0b10a94079c0fd20d8b9166f64f1d24", "title": "Twenty 1st Financial Consulting", "category": "Business & Services", "lat": 50.98919, "lng": 6.88756}, {"id": "276u1hfh-49b5a5dbf5c54d91888899a3c5787f04", "title": "Twenty1st Special-Insurance- Agency", "category": "Business & Services", "lat": 50.98919, "lng": 6.88756}, {"id": "276u1hfh-f7529b3218264ef5b4e9ac2f1aafcf1f", "title": "MMC Studios Koln", "category": "Communications/Media", "lat": 50.98858, "lng": 6.89627}, {"id": "276u1hfj-8b0dd18b5cd7462eb014d98e6922cf49", "title": "Laufenberg Michels und Partner", "category": "Business & Services", "lat": 50.99054, "lng": 6.90586}, {"id": "2768lxx5-6b3fd1e8618d0347f8742f3dbbffd5ac", "title": "B\u00e4ckerei Kraus", "category": "Food & Drink", "lat": 50.99059, "lng": 6.9066}, {"id": "276u1hfj-03f5a2d82a204948840cc81a84bd184f", "title": "Au\u00dfen & Lichtwerbung Bollermann", "category": "Business & Services", "lat": 50.99081, "lng": 6.90925}, {"id": "276u1hfj-9f1b14cde1f84e9ab531c9c5c52c9a30", "title": "Walter Rauen", "category": "Service", "lat": 50.99039, "lng": 6.91662}, {"id": "276jx7ps-74acbef6c60a0c76d634f0ecdb1f9392", "title": "KGV An der Ling", "category": "Recreation", "lat": 50.99022, "lng": 6.91709}, {"id": "276u1hfj-dba4228790cb4a929f0547b65782aaa9", "title": "Fd Hard + Software Vertrieb, Frank U Angela D\u00fcnwald", "category": "Electronics", "lat": 50.99077, "lng": 6.91572}, {"id": "276u1hfj-cd9bea7b1bc64e8f91b0b550baf01c15", "title": "Nephrologische Gemeinschaftspraxis K\u00f6ln-Longerich", "category": "Hospital or Healthcare Facility", "lat": 50.99164, "lng": 6.92409}, {"id": "2768lxx5-21e640eabb260435a597ac2cf67b1337", "title": "The Pizza World", "category": "Restaurant", "lat": 50.97791, "lng": 6.93261}, {"id": "276u1hfj-19656d1412e641bf94188eeb4acc2a91", "title": "Foodangels", "category": "Snacks/Fast food", "lat": 50.97791, "lng": 6.93261}, {"id": "276u1hfn-8a721b0f4f8f42f9ba14a648df54420c", "title": "K\u00fcchen Konzept", "category": "DIY/garden centre", "lat": 50.98926, "lng": 6.94361}, {"id": "276u1hfn-a94b31eae40a4573b969f32821cdae16", "title": "Sunshine Video", "category": "Service", "lat": 50.98926, "lng": 6.94361}, {"id": "276l18c2-d4ce9bdf1cfb01ceac369149602f2080", "title": "Nahkauf", "category": "Food & Drink", "lat": 50.99012, "lng": 6.96166}, {"id": "276q9wpy-9ad4b45ffb3a091686a5899cb7abba17", "title": "Longerich D\u00e4dalusring", "category": "Public Transport", "lat": 50.990564, "lng": 6.906136}, {"id": "276u1hfj-0edd84b79f35411f9c499b4c6647097d", "title": "Dr. Christian b. Seifert", "category": "Hospital or Healthcare Facility", "lat": 50.99164, "lng": 6.92409}, {"id": "276u1hfn-3456a375237e4a229775b4b9260c71c0", "title": "Design Thanh-Thuy", "category": "Clothing & Accessories", "lat": 50.97777, "lng": 6.94883}, {"id": "276d408k-13188e3a5a600650c2f83094fb60f0f7", "title": "D-Mark", "category": "Bar/Pub", "lat": 50.97755, "lng": 6.94935}, {"id": "276u1hfn-421da45fe4a54d5ab77090ad9c332172", "title": "Zur alten D-Mark", "category": "Bar/Pub", "lat": 50.97755, "lng": 6.94935}, {"id": "276d408k-0af182aeb52f02e5c673115a6e635217", "title": "Tierarztpraxis K\u00f6ln-Weidenpesch", "category": "Hospital or Healthcare Facility", "lat": 50.98852, "lng": 6.94484}, {"id": "276u1hfn-fa10ef8985284ec796424bf4b54cde93", "title": "J\u00f6rg Ulrich Metzger", "category": "Hospital or Healthcare Facility", "lat": 50.98852, "lng": 6.94484}, {"id": "276jx7ps-78c91dcb209507f86ef13d0400c130a4", "title": "Friedhof Niehl", "category": "Facility", "lat": 50.98992, "lng": 6.95954}, {"id": "276u1hfn-e49158e202f24e5ba5cadea88ad9e109", "title": "Sonnenstudio Sun in", "category": "Service", "lat": 50.99027, "lng": 6.96068}, {"id": "2768lxx5-2387f0f9c3990b292ddebcaca715a44d", "title": "Creditweb", "category": "Business & Services", "lat": 50.98779, "lng": 6.89269}, {"id": "276u1hfn-0e97c6f07eac4d7a8cdcfc355aaff3c2", "title": "Hotel Buergerhof", "category": "Hotel", "lat": 50.99, "lng": 6.96149}, {"id": "276u1hfn-4061abf49a9f4b5eb1bb074be4c26f19", "title": "Elendskirche", "category": "Religious Place", "lat": 50.98989, "lng": 6.9626}, {"id": "276u1hfn-bb2ae11040a04b55934af229ed7909da", "title": "Speiselokal Atempause", "category": "Restaurant", "lat": 50.97912, "lng": 6.972291}, {"id": "276u1hfn-9abc8a4bee6f43c78bedbd7bf2745d6b", "title": "Contemp.Merch.", "category": "Clothing & Accessories", "lat": 50.9782, "lng": 6.96899}, {"id": "2768lxx5-9c8a173570140847f30646392607bc58", "title": "Petra's Obst & Gem\u00fcse Kiste", "category": "Shop", "lat": 50.97801, "lng": 6.96841}, {"id": "276u1hfn-0db7d7b00014403ca6a8d293015a654c", "title": "Gastst\u00e4tte Kupferkanne", "category": "Restaurant", "lat": 50.97765, "lng": 6.96665}, {"id": "2768lxx5-676fc3a6c00e05596cb1d78eb260d65b", "title": "Auto Ankauf Star", "category": "Service", "lat": 50.99035, "lng": 6.90691}, {"id": "276u1hfj-c3be315ec1c848669d30daafd7fa2d15", "title": "Wirkaufendeinauto", "category": "Car Dealer/Repair", "lat": 50.98957, "lng": 6.91218}, {"id": "276d408k-148126f0fbeb03b2c22c35e3a752cb03", "title": "Hundeschule Buddy", "category": "Business & Services", "lat": 50.989271, "lng": 6.93811}, {"id": "2768lxx5-8d06c1fef9b70bf7e651e30bcaac38ba", "title": "Kabro Motorradtechnik", "category": "Business & Services", "lat": 50.98921, "lng": 6.93812}, {"id": "276d408k-b3d34a43d4170dcaf262b8c9788d8056", "title": "Em P\u00f6zje", "category": "Hotel", "lat": 50.97738, "lng": 6.94644}, {"id": "276jx7ps-720a557e73040b2c66bef1c809b484da", "title": "Raiffeisenbank Frechen-H\u00fcrth", "category": "ATM/Bank/Exchange", "lat": 50.98878, "lng": 6.94384}, {"id": "276u1hfn-f8c9929cbc4c46c48deb43cf5667a422", "title": "Endura Training", "category": "Sport Facility/Venue", "lat": 50.98878, "lng": 6.94384}, {"id": "2768lxx5-f66fab7a23b808b4af0a88b1340be3bc", "title": "Tennis-Club Ford", "category": "Sport Facility/Venue", "lat": 50.98764, "lng": 6.95265}, {"id": "2768lxx5-79b28e08f5b00d63ef6c89dbc6b0869c", "title": "Irmgards Mode L\u00e4dchen", "category": "Clothing & Accessories", "lat": 50.97725, "lng": 6.96042}, {"id": "276u1hfn-bb4cc246e4194ff0b00306438207f4cc", "title": "Dr. med. dent. Ulrike Brockmann", "category": "Hospital or Healthcare Facility", "lat": 50.98943, "lng": 6.95939}, {"id": "2768lxx5-800bb946bc2d0080df97451cab7db759", "title": "Pizza Point K\u00f6ln", "category": "Restaurant", "lat": 50.977433, "lng": 6.966369}, {"id": "276y25s0-ff784eb568df0e15761fce8f5f68f536", "title": "Ingenieurbu\u0308Ro Haija GmbH", "category": "Business & Services", "lat": 50.98882, "lng": 6.88807}, {"id": "276aabd1-e141b043dcea05b1859f2ce18cce428e", "title": "Backerei Kraus", "category": "Food & Drink", "lat": 50.97685, "lng": 6.89133}, {"id": "276u1hfh-58ae952356a14a0c9c17723067fbacc5", "title": "Andronaco Bistro", "category": "Food & Drink", "lat": 50.97685, "lng": 6.89133}, {"id": "276u1hfh-04ea95130d0940f8ae14e1f6a2087dde", "title": "Imbiss Butzweilerhof", "category": "Snacks/Fast food", "lat": 50.97672, "lng": 6.89052}, {"id": "276jx7ps-4d44cb10118309a474405e3e0bd30a58", "title": "Hotel ZeitZeichen", "category": "Hotel", "lat": 50.99977, "lng": 6.799}, {"id": "276u1hfh-08aa3402280e4539b10017492cc4d4f0", "title": "SIXT (K\u00f6ln Nord/Ossendorf)", "category": "Car Hire", "lat": 50.98781, "lng": 6.89159}, {"id": "276u1hfh-449186eb526e494bb2378ed23a1d96c9", "title": "Filmpartners Deutschland", "category": "Communications/Media", "lat": 50.98781, "lng": 6.89145}, {"id": "276u1hfj-31c0b4df95484a688dd407e1d0ea13ef", "title": "W. & L. Jordan GmbH", "category": "Shop", "lat": 50.99035, "lng": 6.90643}, {"id": "276d408k-02dc9a52e6210e4182a807ca6a80cb1c", "title": "Die Werkstatt, Ihr Spezialist f\u00fcr BMW Motorr\u00e4der", "category": "Car Dealer/Repair", "lat": 50.99035, "lng": 6.90835}, {"id": "276u1hfn-a70f63f7bf10414cbbfeeb792dd93593", "title": "G\u00f6dde Kitabedarf, Au\u00dfenger\u00e4te, Spielplatz", "category": "Business & Services", "lat": 50.989191, "lng": 6.959717}, {"id": "2768lxx5-4af707fad02f04fb4fa6e86eb98c4705", "title": "Der Kleine B\u00e4ckerladen", "category": "Food & Drink", "lat": 50.98984, "lng": 6.96134}, {"id": "2768lxx5-fd51d148b0bb0666aba80a3e778e7470", "title": "Barikos", "category": "Hospital or Healthcare Facility", "lat": 50.98829, "lng": 6.88548}, {"id": "276d408k-0335594729f5033bb0476834522a2d96", "title": "Bombtrack Bicycle Co.", "category": "Shop", "lat": 50.98809, "lng": 6.88569}, {"id": "276u1hcu-23504e1d01ce466a990b9e8f40ba56b3", "title": "Doreanse Underwear - Cologne", "category": "Clothing & Accessories", "lat": 50.97644, "lng": 6.89485}, {"id": "2768lxx5-5fa45a747fc20fbe2dd18b3bacccac13", "title": "Kiosk Abels", "category": "Service", "lat": 50.98779, "lng": 6.89269}, {"id": "276u1hcv-a56b6d73628840ad87eb1885f76c2857", "title": "Bai Lu Noodles", "category": "Restaurant", "lat": 50.93904, "lng": 6.94054}, {"id": "276u1hcv-3cf45cb706514cbdb231c26b027a6d35", "title": "Belgischer Hof", "category": "Restaurant", "lat": 50.93714, "lng": 6.93475}, {"id": "276u1hfj-8553aed9b51a442f82825d129a446512", "title": "Gaetano di Napoli", "category": "DIY/garden centre", "lat": 50.98993, "lng": 6.90752}, {"id": "2768lxx5-8d35c1d58d540ce4b4a067b6e93095c5", "title": "Dagdeviren Automobile K\u00f6ln", "category": "Car Dealer/Repair", "lat": 50.98875, "lng": 6.93997}, {"id": "276u1hcy-fa13135feee44c879dffba8ea3ac2269", "title": "Pizza Company", "category": "Restaurant", "lat": 50.97618, "lng": 6.95003}, {"id": "276d408k-d4eb2a8fa41301b02efd207d67ab9ad9", "title": "Fsv Koeln Nord", "category": "Sport Facility/Venue", "lat": 50.986772, "lng": 6.951453}, {"id": "2768lxx5-7a66a1bbed2b0749dfb23ef0655e2a5e", "title": "R\u00fcdiger G\u00f6dde", "category": "DIY/garden centre", "lat": 50.98911, "lng": 6.95969}, {"id": "276u1hcy-99d3ecc0e8c14dd2a610ab165c550640", "title": "Lr-Haro - Health & Beauty", "category": "Shop", "lat": 50.97619, "lng": 6.96313}, {"id": "276u1hfh-2b11865e0bdc4c688c6ea18c0084c17f", "title": "Vcp Postproduction", "category": "Service", "lat": 50.98789, "lng": 6.88425}, {"id": "2768lxx5-41a315b674e4060beeb0c1e7f36135e4", "title": "Logicsale", "category": "Business & Services", "lat": 50.98765, "lng": 6.88809}, {"id": "276jx7ps-26ede166bf8b0f1d5f5956b907c78fe3", "title": "EUROMOBIL Odendahl & Heise GmbH", "category": "Car Hire", "lat": 50.989, "lng": 6.90834}, {"id": "276u1hfj-1217fe8f5e6c4f18b6fcdbcabcc8af1d", "title": "Odendahl & Heise GmbH", "category": "Car Dealer/Repair", "lat": 50.989, "lng": 6.90834}, {"id": "276jx7ps-bc7a2b4732220c9a06761b71186e4a2f", "title": "Odendahl & Heise GmbH", "category": "Car Dealer/Repair", "lat": 50.98888, "lng": 6.90824}, {"id": "276u1hfj-d7b450888efa4e0ab013f909ddb4fd09", "title": "Infonet Computer", "category": "Business & Services", "lat": 50.98875, "lng": 6.90913}, {"id": "276u1hfj-8f715a14b282456aa8017c283831774a", "title": "G\u00fcven Brot Produktions", "category": "Food & Drink", "lat": 50.98787, "lng": 6.91294}, {"id": "276u1hfj-eae76689d2004b71932824bbe3e9e23f", "title": "Zahn\u00e4rztlicher Notdienst K\u00f6ln Vermittlung A&V e.V.", "category": "Hospital or Healthcare Facility", "lat": 50.98665, "lng": 6.93524}, {"id": "2768lxx5-4fe85541ecf30f6a47613c4239259059", "title": "Abflussblitz K\u00f6ln", "category": "Business & Services", "lat": 50.98829, "lng": 6.93985}, {"id": "2768lxx5-e9a95ad0fbc60550b19c10ad6cc3ca49", "title": "Pikasso Renovierungen", "category": "Business & Services", "lat": 50.98829, "lng": 6.93985}, {"id": "276u1hcv-c9b2a5f5abd84205aa708388394cb2cd", "title": "Engler Brandschutz GmbH", "category": "Business & Services", "lat": 50.98829, "lng": 6.93985}, {"id": "276u1hfj-2a4bb82767e1448988a9b21351c48e50", "title": "K\u00f6lnkitas gGmbH", "category": "Educational Facility", "lat": 50.98859, "lng": 6.94246}, {"id": "276u1hcy-e6605e5cbb3142c19bbc13f0feb11a57", "title": "Dreiquadrat", "category": "Snacks/Fast food", "lat": 50.97608, "lng": 6.94985}, {"id": "276u1hcy-6dc8fb3a9c3548f1b68b0f96cdd03242", "title": "Fanhaus K\u00f6ln", "category": "Shop", "lat": 50.97568, "lng": 6.9502}, {"id": "276u1hcy-688f91ff193847778f101ceb44b31451", "title": "The Pizza Place", "category": "Restaurant", "lat": 50.97594, "lng": 6.95929}, {"id": "276u1hcy-8ccfb9682d8149638480defb334a1777", "title": "Basiliko", "category": "Restaurant", "lat": 50.97599, "lng": 6.96022}, {"id": "276u1hcy-b74b1af1c26b4d429c259c69c5267682", "title": "Broadway Pizza", "category": "Restaurant", "lat": 50.97599, "lng": 6.96022}, {"id": "276u1hcy-65d35fa43128469c87dfcaa7438851c5", "title": "Caf\u00e9 Millowitsch", "category": "Restaurant", "lat": 50.97579, "lng": 6.9602}, {"id": "276u1hfn-ac4d26829489444db7cf06b9d5a11b81", "title": "Seidel Rudolf Holzgro\u00dfhandlung", "category": "Service", "lat": 50.98844, "lng": 6.95974}, {"id": "2768lxx5-60ab890874730109fd6b7e038798d838", "title": "Hundecoach Rosie Lukas", "category": "Business & Services", "lat": 50.98848, "lng": 6.95996}, {"id": "276q9wpy-a80f65be41360d51996b686844618ccb", "title": "Niehl Merkenicher Str.", "category": "Public Transport", "lat": 50.98963, "lng": 6.96165}, {"id": "276u1hfh-48480329f5434bf7ac5db7fb74c7fd90", "title": "Gebr. Voosen", "category": "Food & Drink", "lat": 50.98047, "lng": 6.86832}, {"id": "276u1hcg-4e72869155574e648acfaa1b6d2191a4", "title": "L'Osteria Koln Lovenich", "category": "Restaurant", "lat": 50.95247, "lng": 6.83992}, {"id": "2768lxx5-71b8df31c37c020bbacc1ad3e9c4e223", "title": "TV Studio K\u00f6ln", "category": "Service", "lat": 50.98765, "lng": 6.88809}, {"id": "276u1hfh-6e44173039034e748c916f57276a9fe5", "title": "Chemische Reinigung Erwin Eichmeier", "category": "Business & Services", "lat": 50.98753, "lng": 6.88941}, {"id": "276u1hfh-ae42198f2e7b4da19c544b1cbe73669e", "title": "Granada Produktion f\u00fcr Film und Fernsehen", "category": "Communications/Media", "lat": 50.98779, "lng": 6.89269}, {"id": "2768lxx5-3e532d5a8c8406b99e9ef409df0b81f9", "title": "Wolters Bimmelbahnen", "category": "Landmark/Attraction", "lat": 50.98845, "lng": 6.90949}, {"id": "2768lxx5-6fca0640ea3f05d80620338acb121264", "title": "Car Clean", "category": "Car Dealer/Repair", "lat": 50.98845, "lng": 6.90949}, {"id": "276u1hfj-837a1e410ba64949b7649282c1403f8d", "title": "Ic Conrady", "category": "Electronics", "lat": 50.98845, "lng": 6.90949}, {"id": "276u1hfj-946c632d8d65466ea4438ddde9d04227", "title": "Longerich-Bilderst\u00f6ckchen", "category": "Outdoor Area/Complex", "lat": 50.98829, "lng": 6.90937}, {"id": "276u1hfj-e7914261cfb94aad945281a7b93723c2", "title": "Rwr Rohstoff- und Wertstoff- Recycling", "category": "Service", "lat": 50.98747, "lng": 6.91331}, {"id": "276u1hfj-17c02813546048eabfc863e4a126efb2", "title": "Vhd - K\u00f6ln", "category": "Business & Services", "lat": 50.98829, "lng": 6.93985}, {"id": "276u1hcy-3ff3496c43ca454daf360c472025f438", "title": "Piacere - Trattoria, Pasta, Pizza", "category": "Restaurant", "lat": 50.97561, "lng": 6.94672}, {"id": "276l18c2-bb94b68c2d240ed49c87c2c2d3f45d2d", "title": "Dreyer Sportnahrung", "category": "Outdoor Sports", "lat": 50.98833, "lng": 6.94394}, {"id": "276u1hcy-9598f7db43c74bbd83091b2797b666c4", "title": "Zur Kleinen Post", "category": "Bar/Pub", "lat": 50.97526, "lng": 6.94674}, {"id": "276d408k-36c461c12f0c035af9c0b6ddebc953e9", "title": "Caro - Echt K\u00f6lsch", "category": "Bar/Pub", "lat": 50.97526, "lng": 6.94674}, {"id": "276u1hcy-604557f40d904fcfa05106c0512f95d9", "title": "Schluters in Weidenpesch", "category": "Restaurant", "lat": 50.97552, "lng": 6.95005}, {"id": "2768lxx5-8f90c52a2d1c068e4d3b22b519d055e8", "title": "Getr\u00e4nke Star Ece", "category": "Food & Drink", "lat": 50.98848, "lng": 6.95996}, {"id": "276u1hfn-d4061809a3de45cf9613379e92b6d559", "title": "Sparkasse K\u00f6lnBonn", "category": "ATM/Bank/Exchange", "lat": 50.98921, "lng": 6.96136}, {"id": "276u1hfn-87c0416e28614fd689acdc4e12ea77dd", "title": "Vineyard K\u00f6ln", "category": "Religious Place", "lat": 50.98921, "lng": 6.96153}, {"id": "276u1hfh-f728d2e3be874c5e8cf940e28e751079", "title": "Rimowa", "category": "Shop", "lat": 50.9866, "lng": 6.88486}, {"id": "276u1hfh-0cb2f89c343d4009a42d01269f2231a1", "title": "Kiosk 18", "category": "Restaurant", "lat": 50.9797, "lng": 6.86724}, {"id": "2768lxx5-6b4cd18639bb0b776b434ffa0e644613", "title": "Moving Iris - Shopping Guide", "category": "Shop", "lat": 50.98862, "lng": 6.96424}, {"id": "276l18c2-2ec6062e235a065614365bbee652a42d", "title": "Agentur Teichelmann", "category": "Business & Services", "lat": 50.98858, "lng": 6.96452}, {"id": "276u1hfn-edffb0dcbe384f248a387e65cfa92df4", "title": "Miamarmaxipartments - Merkenicher Strasse", "category": "Hotel", "lat": 50.98858, "lng": 6.96269}, {"id": "276u1hfn-ee609c8cff8145b98b5e3075d1e76425", "title": "Miamar Appartements Koln", "category": "Hotel", "lat": 50.98858, "lng": 6.96269}, {"id": "276l18c2-8995a65218cc08e7b7a62ae68d6fcfe2", "title": "Back-Photographie", "category": "Business & Services", "lat": 50.98819, "lng": 6.96339}, {"id": "2768lxx5-7788c604d8530bde522bb850a9dc3c93", "title": "Hansch Immobilien", "category": "Business & Services", "lat": 50.98765, "lng": 6.88809}, {"id": "276u1hfh-0527aff52a5d4d37b6d9e6493cf632ce", "title": "Nadine Dlouhy", "category": "Educational Facility", "lat": 50.98765, "lng": 6.88809}, {"id": "2768lxx5-757bb47a2fba00eeba989fffa9156927", "title": "Martin Bleckmann", "category": "Business & Services", "lat": 50.98735, "lng": 6.88093}, {"id": "276u1hfh-1a6d2be6b1434f8d854e09d710204ce6", "title": "Kult;B\u00fcro - Agentur f\u00fcr Kulinarische Kommunikation", "category": "Business & Services", "lat": 50.98735, "lng": 6.88093}, {"id": "276u1hfh-95d83880f7f749fa86e4e247c7e05f9f", "title": "Wochenmarkt Bocklem\u00fcnd", "category": "Shop", "lat": 50.9801, "lng": 6.8661}, {"id": "276jx7ps-cee9816cf9a10bdce808aa6ab02d1057", "title": "G + W Wahler der Modemarkt", "category": "Clothing & Accessories", "lat": 50.97956, "lng": 6.86662}, {"id": "276u1hfh-374fe52f26a247ab903c61c8b7e178fd", "title": "Newzellas Backstube", "category": "Food & Drink", "lat": 50.97942, "lng": 6.86664}, {"id": "276q9wpy-e12daa4a684c0a2596b53ba6e0821815", "title": "Longerich Hugo-Junkers-Str.", "category": "Public Transport", "lat": 50.98763, "lng": 6.91046}, {"id": "276u1hfj-35a8ca2f59fc4f5ea6eadfc395a658f0", "title": "Odendahl & Heise GmbH", "category": "Car Dealer/Repair", "lat": 50.98763, "lng": 6.91046}, {"id": "2768lxx5-8a6f6d8bf4110fd0870df22cc5428ce8", "title": "Ali Baba Firini", "category": "Restaurant", "lat": 50.97492, "lng": 6.92987}, {"id": "276u1hcy-c8d628ff85b9445ea488eda3207695a1", "title": "Olympia Grill", "category": "Restaurant", "lat": 50.97518, "lng": 6.94972}, {"id": "276u1hfn-5648a453d5324d19a0bf1f61b0bc6aaf", "title": "Coiffeur Patrizia", "category": "Shop", "lat": 50.98753, "lng": 6.94483}, {"id": "276u1hfn-3876eb8cb77845ebb7742f0df3957777", "title": "Squash Park", "category": "Sport Facility/Venue", "lat": 50.98672, "lng": 6.94587}, {"id": "276jx7ps-34db172692de04499bd240077abe19ad", "title": "Sportplatz Scheibenstra\u00dfe", "category": "Sport Facility/Venue", "lat": 50.98572, "lng": 6.94979}, {"id": "276u1hfn-0eccbe84a8ea48dba964a2fafed21ef8", "title": "Michael P. Adrian", "category": "Hospital or Healthcare Facility", "lat": 50.98903, "lng": 6.96133}, {"id": "276u1hfn-64cbe0fef3ee4e58bb4d845c1c4580d6", "title": "Blumenladen Deichsel", "category": "Shop", "lat": 50.98907, "lng": 6.96152}, {"id": "276jx7ps-545137ee86a7055b7389456e37cdbc37", "title": "K\u00f6lner Bank eG", "category": "ATM/Bank/Exchange", "lat": 50.97485, "lng": 6.96477}, {"id": "276u1hfn-56eadea5a4f148299383b82239c905dc", "title": "Quick-Line", "category": "Business & Services", "lat": 50.98799, "lng": 6.96534}, {"id": "2768lxx5-6a78f33c50a500632e49583c8a4701a7", "title": "Akademie am Butzweilerhof", "category": "Educational Facility", "lat": 50.98669, "lng": 6.88098}, {"id": "276u1hcv-a911147ca9c841d7b2b0baa9c5139057", "title": "Kolner Weinkeller", "category": "Shop", "lat": 50.94203, "lng": 6.90254}, {"id": "2768lxx5-a09b44cd245f00d2e8a04b45142bc7bf", "title": "Hallo.De", "category": "Communications/Media", "lat": 50.98656, "lng": 6.88578}, {"id": "276jx7ps-91b5287e16360adf5c04b3c8cf2d7c11", "title": "Radmarkt Schumacher", "category": "Outdoor Sports", "lat": 50.98756, "lng": 6.91018}, {"id": "276u1hfj-05b6dae1ef3445839d487b5c98969973", "title": "Ren\u00e9 Baclain Metallbau", "category": "Business/Industry", "lat": 50.98659, "lng": 6.91369}, {"id": "2768lxx5-011b358a11f5010cbc05c4166e1f6041", "title": "Baumeister Gro\u00dfk\u00fcchentechnik", "category": "Business/Industry", "lat": 50.98663, "lng": 6.91402}, {"id": "276u1hcp-03e293390f224867b5569afca9de46d6", "title": "Industriebahn-Museum", "category": "Museum", "lat": 50.98538, "lng": 6.91606}, {"id": "276u1hcv-117332cd65a245df8a4637f7646ad752", "title": "Siegfriedhof", "category": "Restaurant", "lat": 50.97449, "lng": 6.93945}, {"id": "2768lxx5-eb93ad0cf47700f0f8683d7a8fc66bbc", "title": "Pizza Dream", "category": "Snacks/Fast food", "lat": 50.97453, "lng": 6.94669}, {"id": "276u1hcy-6bb856b34e1f4361ac45681a66555a91", "title": "Monsterst\u00fcck Burger", "category": "Snacks/Fast food", "lat": 50.97453, "lng": 6.94669}, {"id": "276jx7ps-cd7d23fcf35c0a592689ab3b6eeaf425", "title": "KiK", "category": "Clothing & Accessories", "lat": 50.97471, "lng": 6.95042}, {"id": "276u1hfn-676c6224e2b648b8963357fb1da636c4", "title": "Apartment Koln Weidenpesch", "category": "Hotel", "lat": 50.98652, "lng": 6.94607}, {"id": "276u1hfn-5ff8d3a710ef4d18833610cca8318bc7", "title": "Mr. Glanz", "category": "Car Dealer/Repair", "lat": 50.986392, "lng": 6.94604}, {"id": "276jx7ps-5c6305b9480b043a8a7139949e68e73b", "title": "KGV Weidenpesch", "category": "Recreation", "lat": 50.9854, "lng": 6.94968}, {"id": "276u1hfn-97f2d0e8080b49ceb83be1f3939c3995", "title": "Heiro M\u00f6belstoffe", "category": "Shop", "lat": 50.98618, "lng": 6.94647}, {"id": "276u1hfn-b4f471df7da44ca08905c4cc565dc1f1", "title": "Feuerwehrmuseum", "category": "Museum", "lat": 50.98502, "lng": 6.949294}, {"id": "276u1hcy-45b0f0e0701d41aeb6f3b0c784c9af24", "title": "Gioia", "category": "Food & Drink", "lat": 50.9746, "lng": 6.96007}, {"id": "276u1hfn-123a49c7bc5448edb4f2d3989918dbe6", "title": "Strau\u00df Innovation", "category": "DIY/garden centre", "lat": 50.9746, "lng": 6.96007}, {"id": "276u1hcy-6c4cdc85e88841c7b2c6fd34be4c01a8", "title": "Pizzataxi Avanti", "category": "Restaurant", "lat": 50.97453, "lng": 6.96168}, {"id": "2768lxx5-92c493d35faa004120c03afac47a5a07", "title": "Sportforst", "category": "Clothing & Accessories", "lat": 50.97445, "lng": 6.9606}, {"id": "276u1hcy-bd651beb558149aa82af6bd247a3873e", "title": "Atelier f\u00fcr Ma\u00dfmode", "category": "Clothing & Accessories", "lat": 50.97454, "lng": 6.96197}, {"id": "276l18c2-3efbd29e533303cfecfa0e7d85419478", "title": "Postfiliale", "category": "Post Office", "lat": 50.98846, "lng": 6.96121}, {"id": "276l18c2-1dc879c724b702a72b96ebcfe59aa995", "title": "Saseru Fashion", "category": "Clothing & Accessories", "lat": 50.97431, "lng": 6.95775}, {"id": "276u1hfn-696b4b544e484175ab603dd7117ee592", "title": "Sankt Agatha-Krankenhaus-Notaufnahme", "category": "Hospital or Healthcare Facility", "lat": 50.98723, "lng": 6.96021}, {"id": "276u1hfn-567cb4fdac754596997fa0b90f1b669d", "title": "Radio Robl K\u00f6ln mit Poststelle", "category": "Electronics", "lat": 50.98846, "lng": 6.96121}, {"id": "276u1hfn-b4bfe9437b3f463fad3cd8fef453d3ce", "title": "K\u00f6b. B\u00fccherei St. Katharina", "category": "Library", "lat": 50.98783, "lng": 6.96281}, {"id": "2768lxx5-5a33a72d618f0f5176ad34fc24fc8c45", "title": "Yvonne Richter", "category": "Hospital or Healthcare Facility", "lat": 50.98868, "lng": 6.9615}, {"id": "276y25s0-02fde68dc05b059cbf9fc5775d41dbe1", "title": "Kunst und Ergotherapiepraxis Yvonne Richter", "category": "Hospital or Healthcare Facility", "lat": 50.98868, "lng": 6.9615}, {"id": "276u1hfn-c24469be0d404f749b28cb55aa4a591a", "title": "Post, Sebastianstra\u00dfe", "category": "Post Office", "lat": 50.9886, "lng": 6.96141}, {"id": "276u1hfn-2b20a969e9334e619fd052b5a6321784", "title": "Mariana's Ma\u00df- und \u00c4nderungsschneiderei", "category": "Business & Services", "lat": 50.98846, "lng": 6.96151}, {"id": "276d408k-209ea54eb06a06d5f551a074cd43d057", "title": "Schnick-Schnack-Systems GmbH", "category": "Electronics", "lat": 50.9856, "lng": 6.88188}, {"id": "276u1hfh-90e0fa48353642cfb7a9481071e12349", "title": "T\u00fcren & Fenster Kuntze", "category": "DIY/garden centre", "lat": 50.98533, "lng": 6.88233}, {"id": "276u1hcs-d5dc69fc5f5845c4af49559ea371df5b", "title": "Club Astoria", "category": "Restaurant", "lat": 50.93108, "lng": 6.87757}, {"id": "276u1hfn-75b39d4da8f640ac87236bce8c3a16c8", "title": "B\u00e4ckerei & Konditorei F\u00f6rster", "category": "Food & Drink", "lat": 50.9847, "lng": 6.98664}, {"id": "276jx7ps-c2fcec4dd2d90bbea42ec2abce5797c4", "title": "Rheintek-Hydraulik GmbH", "category": "Business & Services", "lat": 50.98719, "lng": 6.88902}, {"id": "276u1hcv-2fb74aedf8a74439b1065ed10cf00f74", "title": "Netcologne Gesellschaft f\u00fcr Telekommunikation mbH", "category": "Communications/Media", "lat": 50.98694, "lng": 6.89082}, {"id": "276aabd1-1de8697dc9e30f80ff06e7169620fc32", "title": "Pizza Ossendorf", "category": "Restaurant", "lat": 50.97387, "lng": 6.90422}, {"id": "276httek-9ab8c5cad3430d5b8e6f5fad94e199a0", "title": "Craft Beer Schneider's Longerich", "category": "Shop", "lat": 50.9872, "lng": 6.91015}, {"id": "276u1hfj-02c18ce8390c4255877c7766cd85a6c9", "title": "Vms Sch\u00e4fer", "category": "Book Shop", "lat": 50.98689, "lng": 6.91093}, {"id": "2768lxx5-5dd6914031b10b4d98c7fd2a2e52b204", "title": "Pars-Kurier", "category": "Service", "lat": 50.98641, "lng": 6.91295}, {"id": "276jx7ps-c51c599ee2450603e2d4c43427a071cb", "title": "KGV Mauenheim 2", "category": "Recreation", "lat": 50.98489, "lng": 6.92224}, {"id": "276u1hfj-11fff4e4b99a497d977d3168021d79d5", "title": "W\u00e4scherei U. Chemische Reinigung Rose", "category": "Business & Services", "lat": 50.98509, "lng": 6.91576}, {"id": "276u1hfn-15d54a6021b04208b60beba5a98a1a25", "title": "Scheibenstra\u00dfe", "category": "Parking Facility", "lat": 50.98489, "lng": 6.95177}, {"id": "2768lxx5-dd05d083794801f0f7bc068f904b3817", "title": "Feuerwache Weidenpesch", "category": "Fire Brigade", "lat": 50.9849, "lng": 6.94962}, {"id": "276u1hfn-05da913cb35e464e8e47eb2b4a6fe0ea", "title": "Northbrigade", "category": "Sport Facility/Venue", "lat": 50.9849, "lng": 6.94962}, {"id": "276u1hcy-576aeee5113740d5a444033ada415d7c", "title": "Irodion", "category": "Restaurant", "lat": 50.97425, "lng": 6.96097}, {"id": "276u1hfn-df7f78d1e8cf4cbcb65a0c5e231d3cec", "title": "Sankt Agatha-Krankenhaus", "category": "Hospital", "lat": 50.9871, "lng": 6.96009}, {"id": "2768lxx5-e2f4e48522c00e0113d3f0640a4e30f5", "title": "Paul's Restaurant", "category": "Restaurant", "lat": 50.9741, "lng": 6.96077}, {"id": "276u1hfn-4480203bd3f3451ca169ed641a851399", "title": "Sebastian-Apotheke", "category": "Chemist's", "lat": 50.98824, "lng": 6.96135}, {"id": "276jx7ps-c76c804c4db1080dfb778e914879524c", "title": "Sportinside Shop-K\u00f6ln", "category": "Outdoor Sports", "lat": 50.98817, "lng": 6.96139}, {"id": "276u1hcy-b55caa8cc35f4fb29e4ea1532acd607e", "title": "Niehler Grill & Pizzeria", "category": "Restaurant", "lat": 50.97406, "lng": 6.96455}, {"id": "276aabd1-7a4153d0259f020a03c08e5c73ffdd47", "title": "Restaurant Antin", "category": "Restaurant", "lat": 50.97406, "lng": 6.96522}, {"id": "2768lxx5-9dea806457150957b2785197ae7e3692", "title": "Pinte op dr Eck", "category": "Restaurant", "lat": 50.97406, "lng": 6.96522}, {"id": "276u1hf4-a1f020b15c1e4fa58a4fec94b5b35441", "title": "Restaurant Velderhof", "category": "Restaurant", "lat": 50.99999, "lng": 6.79053}, {"id": "276u1hcu-6133e5115fb34c5185e4cdc94cdc8ef4", "title": "Viet. Thai Restaurant", "category": "Restaurant", "lat": 50.93967, "lng": 6.88919}, {"id": "2768lxx5-1104062bfcc102c460cf9259755b6746", "title": "Mfw Metallbau", "category": "Business & Services", "lat": 50.98678, "lng": 6.88807}, {"id": "2768lxx5-a428f4778bab0e9abfa9dfa7019ea52a", "title": "M\u00f6beltaxi", "category": "Taxi Stand", "lat": 50.98629, "lng": 6.88645},